{"features": [{"geometry": {"coordinates": [-77.696936, 39.252879], "type": "Point"}, "properties": {"category": "politics", "location": "Britain", "sentiment": "Negative", "title": "Blair pledges unity to Labour MPs", "topic": "Blair pledges unity to Labour MPs"}, "type": "Feature"}, {"geometry": {"coordinates": [-0.127647, 51.507322], "type": "Point"}, "properties": {"category": "politics", "location": "London", "sentiment": "Negative", "title": "PM apology over jailings", "topic": "PM apology over jailings"}, "type": "Feature"}, {"geometry": {"coordinates": [-0.527848, 50.944584], "type": "Point"}, "properties": {"category": "politics", "location": "West Sussex", "sentiment": "Negative", "title": "Analysis: No pain, no gain?", "topic": "Analysis: No pain, no gain?"}, "type": "Feature"}, {"geometry": {"coordinates": [-2.991665, 53.407154], "type": "Point"}, "properties": {"category": "politics", "location": "Liverpool", "sentiment": "Negative", "title": "Boris opposes mayor apology", "topic": "Boris opposes mayor apology"}, "type": "Feature"}, {"geometry": {"coordinates": [-77.696936, 39.252879], "type": "Point"}, "properties": {"category": "politics", "location": "Britain", "sentiment": "Negative", "title": "Blair 'said he would stand down'", "topic": "Blair 'said he would stand down'"}, "type": "Feature"}, {"geometry": {"coordinates": [-77.696936, 39.252879], "type": "Point"}, "properties": {"category": "politics", "location": "Britain", "sentiment": "Negative", "title": "Brown and Blair face new rift claims", "topic": "Brown and Blair face new rift claims"}, "type": "Feature"}, {"geometry": {"coordinates": [-77.696936, 39.252879], "type": "Point"}, "properties": {"category": "politics", "location": "Britain", "sentiment": "Negative", "title": "Brown in appeal for Labour unity", "topic": "Brown in appeal for Labour unity"}, "type": "Feature"}, {"geometry": {"coordinates": [-77.696936, 39.252879], "type": "Point"}, "properties": {"category": "politics", "location": "Britain", "sentiment": "Negative", "title": "Could rivalry overshadow election?", "topic": "Could rivalry overshadow election?"}, "type": "Feature"}, {"geometry": {"coordinates": [38.431398, 1.441968], "type": "Point"}, "properties": {"category": "politics", "location": "Kenya", "sentiment": "Negative", "title": "The memory driving Brown's mission", "topic": "The memory driving Brown's mission"}, "type": "Feature"}, {"geometry": {"coordinates": [-77.696936, 39.252879], "type": "Point"}, "properties": {"category": "politics", "location": "Britain", "sentiment": "Negative", "title": "Blair to face MPs amid feud talk", "topic": "Blair to face MPs amid feud talk"}, "type": "Feature"}, {"geometry": {"coordinates": [12.960886, 47.854794], "type": "Point"}, "properties": {"category": "sports", "location": "Heinze", "sentiment": "Negative", "title": "Ferguson urges Henry punishment", "topic": "Ferguson urges Henry punishment"}, "type": "Feature"}, {"geometry": {"coordinates": [-3.74578, 5.196525], "type": "Point"}, "properties": {"category": "sports", "location": "Drogba", "sentiment": "Negative", "title": "Duff ruled out of Barcelona clash", "topic": "Duff ruled out of Barcelona clash"}, "type": "Feature"}, {"geometry": {"coordinates": [-1.613157, 54.973847], "type": "Point"}, "properties": {"category": "sports", "location": "Newcastle", "sentiment": "Negative", "title": "Bellamy fined after row", "topic": "Bellamy fined after row"}, "type": "Feature"}, {"geometry": {"coordinates": [-1.264906, 52.531021], "type": "Point"}, "properties": {"category": "sports", "location": "England", "sentiment": "Negative", "title": "Wenger rules out new keeper", "topic": "Wenger rules out new keeper"}, "type": "Feature"}, {"geometry": {"coordinates": [-1.264906, 52.531021], "type": "Point"}, "properties": {"category": "sports", "location": "England", "sentiment": "Negative", "title": "Bath faced with Tindall ultimatum", "topic": "Bath faced with Tindall ultimatum"}, "type": "Feature"}, {"geometry": {"coordinates": [-1.613157, 54.973847], "type": "Point"}, "properties": {"category": "sports", "location": "Newcastle", "sentiment": "Negative", "title": "Bridge could miss rest of season", "topic": "Bridge could miss rest of season"}, "type": "Feature"}, {"geometry": {"coordinates": [-4.838065, 39.326234], "type": "Point"}, "properties": {"category": "sports", "location": "Spain", "sentiment": "Negative", "title": "Campbell lifts lid on United feud", "topic": "Campbell lifts lid on United feud"}, "type": "Feature"}, {"geometry": {"coordinates": [-3.703582, 40.416705], "type": "Point"}, "properties": {"category": "sports", "location": "Madrid", "sentiment": "Negative", "title": "Bomb threat at Bernabeu stadium", "topic": "Bomb threat at Bernabeu stadium"}, "type": "Feature"}, {"geometry": {"coordinates": [-4.114052, 56.786111], "type": "Point"}, "properties": {"category": "sports", "location": "Scotland", "sentiment": "Negative", "title": "Rovers reject third Ferguson bid", "topic": "Rovers reject third Ferguson bid"}, "type": "Feature"}, {"geometry": {"coordinates": [121.116473, 14.306888], "type": "Point"}, "properties": {"category": "sports", "location": "Aston Villa's", "sentiment": "Negative", "title": "Cole faces lengthy injury lay-off", "topic": "Cole faces lengthy injury lay-off"}, "type": "Feature"}, {"geometry": {"coordinates": [-1.613157, 54.973847], "type": "Point"}, "properties": {"category": "sports", "location": "Newcastle", "sentiment": "Negative", "title": "Benitez deflects blame from Dudek", "topic": "Benitez deflects blame from Dudek"}, "type": "Feature"}, {"geometry": {"coordinates": [134.755, -24.776109], "type": "Point"}, "properties": {"category": "sports", "location": "Australia", "sentiment": "Negative", "title": "Kewell waits as injury drags on", "topic": "Kewell waits as injury drags on"}, "type": "Feature"}, {"geometry": {"coordinates": [-4.838065, 39.326234], "type": "Point"}, "properties": {"category": "sports", "location": "Spain", "sentiment": "Negative", "title": "Aragones angered by racism fine", "topic": "Aragones angered by racism fine"}, "type": "Feature"}, {"geometry": {"coordinates": [10.423447, 51.08342], "type": "Point"}, "properties": {"category": "sports", "location": "Germany", "sentiment": "Negative", "title": "Klinsmann issues Lehmann warning", "topic": "Klinsmann issues Lehmann warning"}, "type": "Feature"}, {"geometry": {"coordinates": [-1.264906, 52.531021], "type": "Point"}, "properties": {"category": "sports", "location": "England", "sentiment": "Negative", "title": "Wenger steps up row", "topic": "Wenger steps up row"}, "type": "Feature"}, {"geometry": {"coordinates": [5.13858, 52.05998], "type": "Point"}, "properties": {"category": "sports", "location": "Westfalen", "sentiment": "Negative", "title": "Rescue hope for Borussia Dortmund", "topic": "Rescue hope for Borussia Dortmund"}, "type": "Feature"}, {"geometry": {"coordinates": [-1.470228, 53.380663], "type": "Point"}, "properties": {"category": "sports", "location": "Sheffield", "sentiment": "Negative", "title": "Prutton poised for lengthy FA ban", "topic": "Prutton poised for lengthy FA ban"}, "type": "Feature"}, {"geometry": {"coordinates": [2.177432, 41.382894], "type": "Point"}, "properties": {"category": "sports", "location": "Barcelona", "sentiment": "Negative", "title": "Robben plays down European return", "topic": "Robben plays down European return"}, "type": "Feature"}, {"geometry": {"coordinates": [-53.2, -10.333333], "type": "Point"}, "properties": {"category": "sports", "location": "Brazil", "sentiment": "Negative", "title": "Edu describes tunnel fracas", "topic": "Edu describes tunnel fracas"}, "type": "Feature"}, {"geometry": {"coordinates": [10.423447, 51.08342], "type": "Point"}, "properties": {"category": "sports", "location": "Germany", "sentiment": "Negative", "title": "Borussia Dortmund near bust", "topic": "Borussia Dortmund near bust"}, "type": "Feature"}, {"geometry": {"coordinates": [-2.991665, 53.407154], "type": "Point"}, "properties": {"category": "sports", "location": "Liverpool", "sentiment": "Negative", "title": "FA charges Liverpool and Millwall", "topic": "FA charges Liverpool and Millwall"}, "type": "Feature"}, {"geometry": {"coordinates": [2.177432, 41.382894], "type": "Point"}, "properties": {"category": "sports", "location": "Barcelona", "sentiment": "Negative", "title": "FA decides not to punish Mourinho", "topic": "FA decides not to punish Mourinho"}, "type": "Feature"}, {"geometry": {"coordinates": [-0.093412, 51.501084], "type": "Point"}, "properties": {"category": "sports", "location": "Boro", "sentiment": "Negative", "title": "Boro suffer Morrison injury blow", "topic": "Boro suffer Morrison injury blow"}, "type": "Feature"}, {"geometry": {"coordinates": [127.696119, 36.638392], "type": "Point"}, "properties": {"category": "sports", "location": "Korea", "sentiment": "Negative", "title": "Robben sidelined with broken foot", "topic": "Robben sidelined with broken foot"}, "type": "Feature"}, {"geometry": {"coordinates": [-1.902691, 52.479699], "type": "Point"}, "properties": {"category": "sports", "location": "Birmingham", "sentiment": "Negative", "title": "Celtic make late bid for Bellamy", "topic": "Celtic make late bid for Bellamy"}, "type": "Feature"}, {"geometry": {"coordinates": [-1.404189, 50.902535], "type": "Point"}, "properties": {"category": "sports", "location": "Southampton", "sentiment": "Negative", "title": "Cole refuses to blame van Persie", "topic": "Cole refuses to blame van Persie"}, "type": "Feature"}, {"geometry": {"coordinates": [6.231168, 46.370935], "type": "Point"}, "properties": {"category": "sports", "location": "Uefa", "sentiment": "Negative", "title": "Chelsea ridiculed over complaint", "topic": "Chelsea ridiculed over complaint"}, "type": "Feature"}, {"geometry": {"coordinates": [-76.84228, 39.241578], "type": "Point"}, "properties": {"category": "sports", "location": "Aston Villa", "sentiment": "Negative", "title": "Beattie return calms attack fears", "topic": "Beattie return calms attack fears"}, "type": "Feature"}, {"geometry": {"coordinates": [10.423447, 51.08342], "type": "Point"}, "properties": {"category": "business", "location": "Germany", "sentiment": "Negative", "title": "ECB holds rates amid growth fears", "topic": "ECB holds rates amid growth fears"}, "type": "Feature"}, {"geometry": {"coordinates": [-3.276575, 54.702354], "type": "Point"}, "properties": {"category": "business", "location": "UK", "sentiment": "Negative", "title": "Bank voted 8-1 for no rate change", "topic": "Bank voted 8-1 for no rate change"}, "type": "Feature"}, {"geometry": {"coordinates": [-3.276575, 54.702354], "type": "Point"}, "properties": {"category": "business", "location": "UK", "sentiment": "Negative", "title": "House prices show slight increase", "topic": "House prices show slight increase"}, "type": "Feature"}, {"geometry": {"coordinates": [9.047918, 54.476838], "type": "Point"}, "properties": {"category": "business", "location": "Hypovereinsbank", "sentiment": "Negative", "title": "Sluggish economy hits German jobs", "topic": "Sluggish economy hits German jobs"}, "type": "Feature"}, {"geometry": {"coordinates": [103.819499, 1.357107], "type": "Point"}, "properties": {"category": "business", "location": "Singapore", "sentiment": "Negative", "title": "Singapore growth at 8.1% in 2004", "topic": "Singapore growth at 8.1% in 2004"}, "type": "Feature"}, {"geometry": {"coordinates": [-3.276575, 54.702354], "type": "Point"}, "properties": {"category": "business", "location": "UK", "sentiment": "Negative", "title": "'Post-Christmas lull' in lending", "topic": "'Post-Christmas lull' in lending"}, "type": "Feature"}, {"geometry": {"coordinates": [-100.445882, 39.78373], "type": "Point"}, "properties": {"category": "business", "location": "US", "sentiment": "Negative", "title": "Newest EU members underpin growth", "topic": "Newest EU members underpin growth"}, "type": "Feature"}, {"geometry": {"coordinates": [139.239418, 36.574844], "type": "Point"}, "properties": {"category": "business", "location": "Japan", "sentiment": "Negative", "title": "Japan narrowly escapes recession", "topic": "Japan narrowly escapes recession"}, "type": "Feature"}, {"geometry": {"coordinates": [-3.62161, 48.278804], "type": "Point"}, "properties": {"category": "business", "location": "Hartz", "sentiment": "Negative", "title": "Germany nears 1990 jobless level", "topic": "Germany nears 1990 jobless level"}, "type": "Feature"}, {"geometry": {"coordinates": [-3.276575, 54.702354], "type": "Point"}, "properties": {"category": "business", "location": "UK", "sentiment": "Negative", "title": "UK economy facing 'major risks'", "topic": "UK economy facing 'major risks'"}, "type": "Feature"}, {"geometry": {"coordinates": [-53.2, -10.333333], "type": "Point"}, "properties": {"category": "business", "location": "Brazil", "sentiment": "Negative", "title": "Markets signal Brazilian recovery", "topic": "Markets signal Brazilian recovery"}, "type": "Feature"}, {"geometry": {"coordinates": [139.239418, 36.574844], "type": "Point"}, "properties": {"category": "business", "location": "Japan", "sentiment": "Negative", "title": "Japanese growth grinds to a halt", "topic": "Japanese growth grinds to a halt"}, "type": "Feature"}, {"geometry": {"coordinates": [-3.276575, 54.702354], "type": "Point"}, "properties": {"category": "business", "location": "UK", "sentiment": "Negative", "title": "'Golden economic period' to end", "topic": "'Golden economic period' to end"}, "type": "Feature"}, {"geometry": {"coordinates": [-3.276575, 54.702354], "type": "Point"}, "properties": {"category": "business", "location": "UK", "sentiment": "Negative", "title": "Christmas sales worst since 1981", "topic": "Christmas sales worst since 1981"}, "type": "Feature"}, {"geometry": {"coordinates": [-100.445882, 39.78373], "type": "Point"}, "properties": {"category": "business", "location": "US", "sentiment": "Negative", "title": "IMF 'cuts' German growth estimate", "topic": "IMF 'cuts' German growth estimate"}, "type": "Feature"}, {"geometry": {"coordinates": [10.423447, 51.08342], "type": "Point"}, "properties": {"category": "business", "location": "Germany", "sentiment": "Negative", "title": "German growth goes into reverse", "topic": "German growth goes into reverse"}, "type": "Feature"}, {"geometry": {"coordinates": [139.239418, 36.574844], "type": "Point"}, "properties": {"category": "business", "location": "Japan", "sentiment": "Negative", "title": "Industrial output falls in Japan", "topic": "Industrial output falls in Japan"}, "type": "Feature"}, {"geometry": {"coordinates": [139.239418, 36.574844], "type": "Point"}, "properties": {"category": "business", "location": "Japan", "sentiment": "Negative", "title": "Japan's ageing workforce: built to last", "topic": "Japan's ageing workforce: built to last"}, "type": "Feature"}, {"geometry": {"coordinates": [134.755, -24.776109], "type": "Point"}, "properties": {"category": "business", "location": "Australia", "sentiment": "Negative", "title": "Australia rates at four year high", "topic": "Australia rates at four year high"}, "type": "Feature"}, {"geometry": {"coordinates": [-3.276575, 54.702354], "type": "Point"}, "properties": {"category": "business", "location": "UK", "sentiment": "Negative", "title": "House prices suffer festive fall", "topic": "House prices suffer festive fall"}, "type": "Feature"}, {"geometry": {"coordinates": [139.239418, 36.574844], "type": "Point"}, "properties": {"category": "business", "location": "Japan", "sentiment": "Negative", "title": "Japan economy slides to recession", "topic": "Japan economy slides to recession"}, "type": "Feature"}, {"geometry": {"coordinates": [-3.73893, 52.292812], "type": "Point"}, "properties": {"category": "business", "location": "Wales", "sentiment": "Negative", "title": "Survey confirms property slowdown", "topic": "Survey confirms property slowdown"}, "type": "Feature"}, {"geometry": {"coordinates": [-3.276575, 54.702354], "type": "Point"}, "properties": {"category": "business", "location": "UK", "sentiment": "Negative", "title": "Manufacturing recovery 'slowing'", "topic": "Manufacturing recovery 'slowing'"}, "type": "Feature"}, {"geometry": {"coordinates": [-77.696936, 39.252879], "type": "Point"}, "properties": {"category": "business", "location": "Britain", "sentiment": "Negative", "title": "Bank holds interest rate at 4.75%", "topic": "Bank holds interest rate at 4.75%"}, "type": "Feature"}, {"geometry": {"coordinates": [-100.445882, 39.78373], "type": "Point"}, "properties": {"category": "business", "location": "US", "sentiment": "Negative", "title": "US data sparks inflation worries", "topic": "US data sparks inflation worries"}, "type": "Feature"}, {"geometry": {"coordinates": [-3.276575, 54.702354], "type": "Point"}, "properties": {"category": "business", "location": "UK", "sentiment": "Negative", "title": "Bank set to leave rates on hold", "topic": "Bank set to leave rates on hold"}, "type": "Feature"}, {"geometry": {"coordinates": [-3.276575, 54.702354], "type": "Point"}, "properties": {"category": "business", "location": "UK", "sentiment": "Negative", "title": "Retail sales show festive fervour", "topic": "Retail sales show festive fervour"}, "type": "Feature"}, {"geometry": {"coordinates": [-53.2, -10.333333], "type": "Point"}, "properties": {"category": "business", "location": "Brazil", "sentiment": "Negative", "title": "Brazil jobless rate hits new low", "topic": "Brazil jobless rate hits new low"}, "type": "Feature"}, {"geometry": {"coordinates": [12.674297, 42.638426], "type": "Point"}, "properties": {"category": "business", "location": "Italy", "sentiment": "Negative", "title": "French consumer spending rising", "topic": "French consumer spending rising"}, "type": "Feature"}, {"geometry": {"coordinates": [-3.276575, 54.702354], "type": "Point"}, "properties": {"category": "business", "location": "UK", "sentiment": "Negative", "title": "House prices rebound says Halifax", "topic": "House prices rebound says Halifax"}, "type": "Feature"}, {"geometry": {"coordinates": [10.423447, 51.08342], "type": "Point"}, "properties": {"category": "business", "location": "Germany", "sentiment": "Negative", "title": "German economy rebounds", "topic": "German economy rebounds"}, "type": "Feature"}, {"geometry": {"coordinates": [-77.696936, 39.252879], "type": "Point"}, "properties": {"category": "business", "location": "Britain", "sentiment": "Negative", "title": "UK interest rates held at 4.75%", "topic": "UK interest rates held at 4.75%"}, "type": "Feature"}, {"geometry": {"coordinates": [139.239418, 36.574844], "type": "Point"}, "properties": {"category": "business", "location": "Japan", "sentiment": "Negative", "title": "Stock market eyes Japan recovery", "topic": "Stock market eyes Japan recovery"}, "type": "Feature"}, {"geometry": {"coordinates": [-3.276575, 54.702354], "type": "Point"}, "properties": {"category": "business", "location": "UK", "sentiment": "Negative", "title": "UK house prices dip in November", "topic": "UK house prices dip in November"}, "type": "Feature"}, {"geometry": {"coordinates": [-3.276575, 54.702354], "type": "Point"}, "properties": {"category": "business", "location": "UK", "sentiment": "Negative", "title": "No seasonal lift for house market", "topic": "No seasonal lift for house market"}, "type": "Feature"}, {"geometry": {"coordinates": [13.199959, 47.200034], "type": "Point"}, "properties": {"category": "entertainment", "location": "Austria", "sentiment": "Negative", "title": "The Sound of Music is coming home", "topic": "The Sound of Music is coming home"}, "type": "Feature"}, {"geometry": {"coordinates": [-1.718423, 47.349351], "type": "Point"}, "properties": {"category": "entertainment", "location": "Bollywood", "sentiment": "Negative", "title": "Bollywood DVD fraudster is jailed", "topic": "Bollywood DVD fraudster is jailed"}, "type": "Feature"}, {"geometry": {"coordinates": [44.174977, 33.095579], "type": "Point"}, "properties": {"category": "entertainment", "location": "Iraq", "sentiment": "Negative", "title": "Baghdad Blogger on big screen", "topic": "Baghdad Blogger on big screen"}, "type": "Feature"}, {"geometry": {"coordinates": [-100.445882, 39.78373], "type": "Point"}, "properties": {"category": "entertainment", "location": "US", "sentiment": "Negative", "title": "Shark Tale DVD is US best-seller", "topic": "Shark Tale DVD is US best-seller"}, "type": "Feature"}, {"geometry": {"coordinates": [-86.916661, 33.637883], "type": "Point"}, "properties": {"category": "entertainment", "location": "Brookside", "sentiment": "Negative", "title": "Brookside actress Keaveney dies", "topic": "Brookside actress Keaveney dies"}, "type": "Feature"}, {"geometry": {"coordinates": [-3.276575, 54.702354], "type": "Point"}, "properties": {"category": "entertainment", "location": "UK", "sentiment": "Negative", "title": "De Niro completes box office coup", "topic": "De Niro completes box office coup"}, "type": "Feature"}, {"geometry": {"coordinates": [0.0, 0.0], "type": "Point"}, "properties": {"category": "entertainment", "location": "Dogville", "sentiment": "Negative", "title": "Briton wins short film Oscar", "topic": "Briton wins short film Oscar"}, "type": "Feature"}, {"geometry": {"coordinates": [-100.445882, 39.78373], "type": "Point"}, "properties": {"category": "entertainment", "location": "US", "sentiment": "Negative", "title": "Last Star Wars 'not for children'", "topic": "Last Star Wars 'not for children'"}, "type": "Feature"}, {"geometry": {"coordinates": [-70.302803, 19.097403], "type": "Point"}, "properties": {"category": "entertainment", "location": "Dominica", "sentiment": "Negative", "title": "Film row over Pirates 'cannibals'", "topic": "Film row over Pirates 'cannibals'"}, "type": "Feature"}, {"geometry": {"coordinates": [-0.127647, 51.507322], "type": "Point"}, "properties": {"category": "entertainment", "location": "London", "sentiment": "Negative", "title": "Snicket tops US box office chart", "topic": "Snicket tops US box office chart"}, "type": "Feature"}, {"geometry": {"coordinates": [-0.127647, 51.507322], "type": "Point"}, "properties": {"category": "entertainment", "location": "London", "sentiment": "Negative", "title": "Lopez misses UK charity premiere", "topic": "Lopez misses UK charity premiere"}, "type": "Feature"}, {"geometry": {"coordinates": [-118.329523, 34.098003], "type": "Point"}, "properties": {"category": "entertainment", "location": "Hollywood", "sentiment": "Negative", "title": "Arthur Hailey: King of the bestsellers", "topic": "Arthur Hailey: King of the bestsellers"}, "type": "Feature"}, {"geometry": {"coordinates": [-118.329523, 34.098003], "type": "Point"}, "properties": {"category": "entertainment", "location": "Hollywood", "sentiment": "Negative", "title": "Godzilla gets Hollywood fame star", "topic": "Godzilla gets Hollywood fame star"}, "type": "Feature"}, {"geometry": {"coordinates": [-100.445882, 39.78373], "type": "Point"}, "properties": {"category": "entertainment", "location": "US", "sentiment": "Negative", "title": "Rock star sued by ex-girlfriend", "topic": "Rock star sued by ex-girlfriend"}, "type": "Feature"}, {"geometry": {"coordinates": [-100.445882, 39.78373], "type": "Point"}, "properties": {"category": "entertainment", "location": "US", "sentiment": "Negative", "title": "Rapper films music video in jail", "topic": "Rapper films music video in jail"}, "type": "Feature"}, {"geometry": {"coordinates": [27.771163, -26.458938], "type": "Point"}, "properties": {"category": "entertainment", "location": "Xhosa", "sentiment": "Negative", "title": "Berlin cheers for anti-Nazi film", "topic": "Berlin cheers for anti-Nazi film"}, "type": "Feature"}, {"geometry": {"coordinates": [14.258911, 40.845656], "type": "Point"}, "properties": {"category": "entertainment", "location": "Tarantino", "sentiment": "Negative", "title": "Tarantino 'to make Friday sequel'", "topic": "Tarantino 'to make Friday sequel'"}, "type": "Feature"}, {"geometry": {"coordinates": [-100.445882, 39.78373], "type": "Point"}, "properties": {"category": "entertainment", "location": "US", "sentiment": "Negative", "title": "Horror film heads US box office", "topic": "Horror film heads US box office"}, "type": "Feature"}, {"geometry": {"coordinates": [78.667743, 22.351115], "type": "Point"}, "properties": {"category": "entertainment", "location": "India", "sentiment": "Negative", "title": "Church anger over Bollywood film", "topic": "Church anger over Bollywood film"}, "type": "Feature"}, {"geometry": {"coordinates": [-80.135301, 25.79292], "type": "Point"}, "properties": {"category": "entertainment", "location": "Miami Beach", "sentiment": "Negative", "title": "US actor Ossie Davis found dead", "topic": "US actor Ossie Davis found dead"}, "type": "Feature"}, {"geometry": {"coordinates": [-100.445882, 39.78373], "type": "Point"}, "properties": {"category": "entertainment", "location": "US", "sentiment": "Negative", "title": "Fockers keeps US box office lead", "topic": "Fockers keeps US box office lead"}, "type": "Feature"}, {"geometry": {"coordinates": [-100.445882, 39.78373], "type": "Point"}, "properties": {"category": "entertainment", "location": "US", "sentiment": "Negative", "title": "Cage film's third week at US top", "topic": "Cage film's third week at US top"}, "type": "Feature"}, {"geometry": {"coordinates": [5.748082, 52.50017], "type": "Point"}, "properties": {"category": "entertainment", "location": "Netherlands", "sentiment": "Negative", "title": "Dutch watch Van Gogh's last film", "topic": "Dutch watch Van Gogh's last film"}, "type": "Feature"}, {"geometry": {"coordinates": [-100.445882, 39.78373], "type": "Point"}, "properties": {"category": "entertainment", "location": "US", "sentiment": "Negative", "title": "Hollywood to sue net film pirates", "topic": "Hollywood to sue net film pirates"}, "type": "Feature"}, {"geometry": {"coordinates": [-2.867744, 53.611688], "type": "Point"}, "properties": {"category": "entertainment", "location": "New Line", "sentiment": "Negative", "title": "God cut from Dark Materials film", "topic": "God cut from Dark Materials film"}, "type": "Feature"}, {"geometry": {"coordinates": [151.216454, -33.854816], "type": "Point"}, "properties": {"category": "entertainment", "location": "Sydney", "sentiment": "Negative", "title": "Kidman wins photographer battle", "topic": "Kidman wins photographer battle"}, "type": "Feature"}, {"geometry": {"coordinates": [78.667743, 22.351115], "type": "Point"}, "properties": {"category": "entertainment", "location": "India", "sentiment": "Negative", "title": "Mumbai bombs movie postponed", "topic": "Mumbai bombs movie postponed"}, "type": "Feature"}, {"geometry": {"coordinates": [-100.445882, 39.78373], "type": "Point"}, "properties": {"category": "entertainment", "location": "US", "sentiment": "Negative", "title": "Willis sues over movie 'injury'", "topic": "Willis sues over movie 'injury'"}, "type": "Feature"}, {"geometry": {"coordinates": [-81.463983, 27.756767], "type": "Point"}, "properties": {"category": "entertainment", "location": "Florida", "sentiment": "Negative", "title": "Lost Doors frontman movie found", "topic": "Lost Doors frontman movie found"}, "type": "Feature"}, {"geometry": {"coordinates": [-3.276575, 54.702354], "type": "Point"}, "properties": {"category": "technology", "location": "UK", "sentiment": "Negative", "title": "Brussels raps mobile call charges", "topic": "Brussels raps mobile call charges"}, "type": "Feature"}, {"geometry": {"coordinates": [-121.972405, 37.385503], "type": "Point"}, "properties": {"category": "technology", "location": "Sophos", "sentiment": "Negative", "title": "Fast moving phone bugs appear", "topic": "Fast moving phone bugs appear"}, "type": "Feature"}, {"geometry": {"coordinates": [34.866765, 31.531311], "type": "Point"}, "properties": {"category": "technology", "location": "Israel", "sentiment": "Negative", "title": "Iranian MPs threaten mobile deal", "topic": "Iranian MPs threaten mobile deal"}, "type": "Feature"}, {"geometry": {"coordinates": [-100.445882, 39.78373], "type": "Point"}, "properties": {"category": "technology", "location": "US", "sentiment": "Negative", "title": "US hacker breaks into T-Mobile", "topic": "US hacker breaks into T-Mobile"}, "type": "Feature"}, {"geometry": {"coordinates": [6.817671, 49.125957], "type": "Point"}, "properties": {"category": "technology", "location": "Betting", "sentiment": "Negative", "title": "Sport betting rules in spotlight", "topic": "Sport betting rules in spotlight"}, "type": "Feature"}, {"geometry": {"coordinates": [0.0, 0.0], "type": "Point"}, "properties": {"category": "technology", "location": "Celltick", "sentiment": "Negative", "title": "Mobile multimedia slow to catch on", "topic": "Mobile multimedia slow to catch on"}, "type": "Feature"}, {"geometry": {"coordinates": [9.099972, 60.500021], "type": "Point"}, "properties": {"category": "technology", "location": "Norway", "sentiment": "Negative", "title": "India to deport Bollywood actress", "topic": "India to deport Bollywood actress"}, "type": "Feature"}, {"geometry": {"coordinates": [-121.972405, 37.385503], "type": "Point"}, "properties": {"category": "technology", "location": "Sophos", "sentiment": "Negative", "title": "Fast moving phone viruses appear", "topic": "Fast moving phone viruses appear"}, "type": "Feature"}, {"geometry": {"coordinates": [-3.276575, 54.702354], "type": "Point"}, "properties": {"category": "technology", "location": "UK", "sentiment": "Negative", "title": "Tough rules for ringtone sellers", "topic": "Tough rules for ringtone sellers"}, "type": "Feature"}, {"geometry": {"coordinates": [-3.276575, 54.702354], "type": "Point"}, "properties": {"category": "technology", "location": "UK", "sentiment": "Negative", "title": "'Friends fear' with lost mobiles", "topic": "'Friends fear' with lost mobiles"}, "type": "Feature"}, {"geometry": {"coordinates": [139.239418, 36.574844], "type": "Point"}, "properties": {"category": "technology", "location": "Japan", "sentiment": "Negative", "title": "Vodafone appoints new Japan boss", "topic": "Vodafone appoints new Japan boss"}, "type": "Feature"}, {"geometry": {"coordinates": [-3.276575, 54.702354], "type": "Point"}, "properties": {"category": "technology", "location": "UK", "sentiment": "Negative", "title": "Video phone help for deaf people", "topic": "Video phone help for deaf people"}, "type": "Feature"}, {"geometry": {"coordinates": [-100.445882, 39.78373], "type": "Point"}, "properties": {"category": "technology", "location": "US", "sentiment": "Negative", "title": "Mobile picture power in your pocket", "topic": "Mobile picture power in your pocket"}, "type": "Feature"}, {"geometry": {"coordinates": [-79.472979, 43.739325], "type": "Point"}, "properties": {"category": "business", "location": "Bombardier", "sentiment": "Negative", "title": "Bombardier chief to leave company", "topic": "Bombardier chief to leave company"}, "type": "Feature"}, {"geometry": {"coordinates": [-100.445882, 39.78373], "type": "Point"}, "properties": {"category": "business", "location": "US", "sentiment": "Negative", "title": "Deadline nears for Fiat-GM deal", "topic": "Deadline nears for Fiat-GM deal"}, "type": "Feature"}, {"geometry": {"coordinates": [10.206695, 44.756504], "type": "Point"}, "properties": {"category": "business", "location": "Parmalat", "sentiment": "Negative", "title": "Parmalat to return to stockmarket", "topic": "Parmalat to return to stockmarket"}, "type": "Feature"}, {"geometry": {"coordinates": [-100.445882, 39.78373], "type": "Point"}, "properties": {"category": "business", "location": "US", "sentiment": "Negative", "title": "Lacroix label bought by US firm", "topic": "Lacroix label bought by US firm"}, "type": "Feature"}, {"geometry": {"coordinates": [-86.829534, 33.258882], "type": "Point"}, "properties": {"category": "business", "location": "Alabama", "sentiment": "Negative", "title": "HealthSouth ex-boss goes on trial", "topic": "HealthSouth ex-boss goes on trial"}, "type": "Feature"}, {"geometry": {"coordinates": [-100.445882, 39.78373], "type": "Point"}, "properties": {"category": "business", "location": "US", "sentiment": "Negative", "title": "Insurance bosses plead guilty", "topic": "Insurance bosses plead guilty"}, "type": "Feature"}, {"geometry": {"coordinates": [-3.276575, 54.702354], "type": "Point"}, "properties": {"category": "business", "location": "UK", "sentiment": "Negative", "title": "Euro firms miss out on optimism", "topic": "Euro firms miss out on optimism"}, "type": "Feature"}, {"geometry": {"coordinates": [-100.445882, 39.78373], "type": "Point"}, "properties": {"category": "business", "location": "US", "sentiment": "Negative", "title": "J&J agrees $25bn Guidant deal", "topic": "J&J agrees $25bn Guidant deal"}, "type": "Feature"}, {"geometry": {"coordinates": [-3.703582, 40.416705], "type": "Point"}, "properties": {"category": "business", "location": "Madrid", "sentiment": "Negative", "title": "Stormy year for property insurers", "topic": "Stormy year for property insurers"}, "type": "Feature"}, {"geometry": {"coordinates": [-3.276575, 54.702354], "type": "Point"}, "properties": {"category": "business", "location": "UK", "sentiment": "Negative", "title": "Wembley firm won't make a profit", "topic": "Wembley firm won't make a profit"}, "type": "Feature"}, {"geometry": {"coordinates": [-100.445882, 39.78373], "type": "Point"}, "properties": {"category": "business", "location": "US", "sentiment": "Negative", "title": "European losses hit GM's profits", "topic": "European losses hit GM's profits"}, "type": "Feature"}, {"geometry": {"coordinates": [-74.006015, 40.712728], "type": "Point"}, "properties": {"category": "business", "location": "New York", "sentiment": "Negative", "title": "US insurer Marsh cuts 2,500 jobs", "topic": "US insurer Marsh cuts 2,500 jobs"}, "type": "Feature"}, {"geometry": {"coordinates": [10.206695, 44.756504], "type": "Point"}, "properties": {"category": "business", "location": "Parmalat", "sentiment": "Negative", "title": "Parmalat founder offers apology", "topic": "Parmalat founder offers apology"}, "type": "Feature"}, {"geometry": {"coordinates": [-100.445882, 39.78373], "type": "Point"}, "properties": {"category": "business", "location": "US", "sentiment": "Negative", "title": "Senior Fannie Mae bosses resign", "topic": "Senior Fannie Mae bosses resign"}, "type": "Feature"}, {"geometry": {"coordinates": [-0.127647, 51.507322], "type": "Point"}, "properties": {"category": "business", "location": "London", "sentiment": "Negative", "title": "Glaxo aims high after profit fall", "topic": "Glaxo aims high after profit fall"}, "type": "Feature"}, {"geometry": {"coordinates": [-100.445882, 39.78373], "type": "Point"}, "properties": {"category": "business", "location": "US", "sentiment": "Negative", "title": "GM, Ford cut output as sales fall", "topic": "GM, Ford cut output as sales fall"}, "type": "Feature"}, {"geometry": {"coordinates": [-100.445882, 39.78373], "type": "Point"}, "properties": {"category": "business", "location": "US", "sentiment": "Negative", "title": "High fuel costs hit US airlines", "topic": "High fuel costs hit US airlines"}, "type": "Feature"}, {"geometry": {"coordinates": [104.999927, 35.000074], "type": "Point"}, "properties": {"category": "business", "location": "China", "sentiment": "Negative", "title": "Profits stall at China's Lenovo", "topic": "Profits stall at China's Lenovo"}, "type": "Feature"}, {"geometry": {"coordinates": [-100.445882, 39.78373], "type": "Point"}, "properties": {"category": "business", "location": "US", "sentiment": "Negative", "title": "Brewers' profits lose their fizz", "topic": "Brewers' profits lose their fizz"}, "type": "Feature"}, {"geometry": {"coordinates": [-100.445882, 39.78373], "type": "Point"}, "properties": {"category": "business", "location": "US", "sentiment": "Negative", "title": "Safety alert as GM recalls cars", "topic": "Safety alert as GM recalls cars"}, "type": "Feature"}, {"geometry": {"coordinates": [-100.445882, 39.78373], "type": "Point"}, "properties": {"category": "business", "location": "US", "sentiment": "Negative", "title": "WorldCom bosses' $54m payout", "topic": "WorldCom bosses' $54m payout"}, "type": "Feature"}, {"geometry": {"coordinates": [-100.445882, 39.78373], "type": "Point"}, "properties": {"category": "business", "location": "US", "sentiment": "Negative", "title": "Court rejects $280bn tobacco case", "topic": "Court rejects $280bn tobacco case"}, "type": "Feature"}, {"geometry": {"coordinates": [-100.445882, 39.78373], "type": "Point"}, "properties": {"category": "business", "location": "US", "sentiment": "Negative", "title": "Lufthansa flies back to profit", "topic": "Lufthansa flies back to profit"}, "type": "Feature"}, {"geometry": {"coordinates": [-100.445882, 39.78373], "type": "Point"}, "properties": {"category": "business", "location": "US", "sentiment": "Negative", "title": "Enron bosses in $168m payout", "topic": "Enron bosses in $168m payout"}, "type": "Feature"}, {"geometry": {"coordinates": [78.667743, 22.351115], "type": "Point"}, "properties": {"category": "business", "location": "India", "sentiment": "Negative", "title": "India's Reliance family feud heats up", "topic": "India's Reliance family feud heats up"}, "type": "Feature"}, {"geometry": {"coordinates": [134.755, -24.776109], "type": "Point"}, "properties": {"category": "business", "location": "Australia", "sentiment": "Negative", "title": "Building giant in asbestos payout", "topic": "Building giant in asbestos payout"}, "type": "Feature"}, {"geometry": {"coordinates": [-100.445882, 39.78373], "type": "Point"}, "properties": {"category": "business", "location": "US", "sentiment": "Negative", "title": "Quiksilver moves for Rossignol", "topic": "Quiksilver moves for Rossignol"}, "type": "Feature"}, {"geometry": {"coordinates": [-7.97946, 52.865196], "type": "Point"}, "properties": {"category": "business", "location": "Ireland", "sentiment": "Negative", "title": "Executive trio leave Aer Lingus", "topic": "Executive trio leave Aer Lingus"}, "type": "Feature"}, {"geometry": {"coordinates": [-100.445882, 39.78373], "type": "Point"}, "properties": {"category": "business", "location": "US", "sentiment": "Negative", "title": "US regulator to rule on pain drug", "topic": "US regulator to rule on pain drug"}, "type": "Feature"}, {"geometry": {"coordinates": [-100.445882, 39.78373], "type": "Point"}, "properties": {"category": "business", "location": "US", "sentiment": "Negative", "title": "Marsh executive in guilty plea", "topic": "Marsh executive in guilty plea"}, "type": "Feature"}, {"geometry": {"coordinates": [139.239418, 36.574844], "type": "Point"}, "properties": {"category": "business", "location": "Japan", "sentiment": "Negative", "title": "Peugeot deal boosts Mitsubishi", "topic": "Peugeot deal boosts Mitsubishi"}, "type": "Feature"}, {"geometry": {"coordinates": [-100.445882, 39.78373], "type": "Point"}, "properties": {"category": "business", "location": "US", "sentiment": "Negative", "title": "US gives foreign firms extra time", "topic": "US gives foreign firms extra time"}, "type": "Feature"}, {"geometry": {"coordinates": [72.877393, 19.07599], "type": "Point"}, "properties": {"category": "business", "location": "Bombay", "sentiment": "Negative", "title": "Share boost for feud-hit Reliance", "topic": "Share boost for feud-hit Reliance"}, "type": "Feature"}, {"geometry": {"coordinates": [-100.445882, 39.78373], "type": "Point"}, "properties": {"category": "business", "location": "US", "sentiment": "Negative", "title": "Mitsubishi in Peugeot link talks", "topic": "Mitsubishi in Peugeot link talks"}, "type": "Feature"}, {"geometry": {"coordinates": [-3.276575, 54.702354], "type": "Point"}, "properties": {"category": "business", "location": "UK", "sentiment": "Negative", "title": "Jarvis sells Tube stake to Spain", "topic": "Jarvis sells Tube stake to Spain"}, "type": "Feature"}, {"geometry": {"coordinates": [102.265682, 4.569375], "type": "Point"}, "properties": {"category": "business", "location": "Malaysia", "sentiment": "Negative", "title": "Laura Ashley chief stepping down", "topic": "Laura Ashley chief stepping down"}, "type": "Feature"}, {"geometry": {"coordinates": [-100.445882, 39.78373], "type": "Point"}, "properties": {"category": "business", "location": "US", "sentiment": "Negative", "title": "US Ahold suppliers face charges", "topic": "US Ahold suppliers face charges"}, "type": "Feature"}, {"geometry": {"coordinates": [105.85, 21.026528], "type": "Point"}, "properties": {"category": "business", "location": "Jetstar", "sentiment": "Negative", "title": "Virgin Blue shares plummet 20%", "topic": "Virgin Blue shares plummet 20%"}, "type": "Feature"}, {"geometry": {"coordinates": [-100.445882, 39.78373], "type": "Point"}, "properties": {"category": "business", "location": "US", "sentiment": "Negative", "title": "MCI shares climb on takeover bid", "topic": "MCI shares climb on takeover bid"}, "type": "Feature"}, {"geometry": {"coordinates": [-0.127647, 51.507322], "type": "Point"}, "properties": {"category": "business", "location": "London", "sentiment": "Negative", "title": "Unilever shake up as profit slips", "topic": "Unilever shake up as profit slips"}, "type": "Feature"}, {"geometry": {"coordinates": [-100.445882, 39.78373], "type": "Point"}, "properties": {"category": "business", "location": "US", "sentiment": "Negative", "title": "Fannie Mae 'should restate books'", "topic": "Fannie Mae 'should restate books'"}, "type": "Feature"}, {"geometry": {"coordinates": [-100.445882, 39.78373], "type": "Point"}, "properties": {"category": "business", "location": "US", "sentiment": "Negative", "title": "Troubled Marsh under SEC scrutiny", "topic": "Troubled Marsh under SEC scrutiny"}, "type": "Feature"}, {"geometry": {"coordinates": [-100.445882, 39.78373], "type": "Point"}, "properties": {"category": "business", "location": "US", "sentiment": "Negative", "title": "Continental 'may run out of cash'", "topic": "Continental 'may run out of cash'"}, "type": "Feature"}, {"geometry": {"coordinates": [134.755, -24.776109], "type": "Point"}, "properties": {"category": "business", "location": "Australia", "sentiment": "Negative", "title": "Alfa Romeos 'to get GM engines'", "topic": "Alfa Romeos 'to get GM engines'"}, "type": "Feature"}, {"geometry": {"coordinates": [-100.445882, 39.78373], "type": "Point"}, "properties": {"category": "business", "location": "US", "sentiment": "Negative", "title": "GM pays $2bn to evade Fiat buyout", "topic": "GM pays $2bn to evade Fiat buyout"}, "type": "Feature"}, {"geometry": {"coordinates": [-100.445882, 39.78373], "type": "Point"}, "properties": {"category": "business", "location": "US", "sentiment": "Negative", "title": "Verizon 'seals takeover of MCI'", "topic": "Verizon 'seals takeover of MCI'"}, "type": "Feature"}, {"geometry": {"coordinates": [1.888334, 46.603354], "type": "Point"}, "properties": {"category": "business", "location": "France", "sentiment": "Negative", "title": "French boss to leave EADS", "topic": "French boss to leave EADS"}, "type": "Feature"}, {"geometry": {"coordinates": [12.674297, 42.638426], "type": "Point"}, "properties": {"category": "business", "location": "Italy", "sentiment": "Negative", "title": "Parmalat boasts doubled profits", "topic": "Parmalat boasts doubled profits"}, "type": "Feature"}, {"geometry": {"coordinates": [144.963161, -37.814218], "type": "Point"}, "properties": {"category": "sports", "location": "Melbourne", "sentiment": "Negative", "title": "Hewitt fights back to reach final", "topic": "Hewitt fights back to reach final"}, "type": "Feature"}, {"geometry": {"coordinates": [134.755, -24.776109], "type": "Point"}, "properties": {"category": "sports", "location": "Australia", "sentiment": "Negative", "title": "Clijsters could play Aussie Open", "topic": "Clijsters could play Aussie Open"}, "type": "Feature"}, {"geometry": {"coordinates": [134.755, -24.776109], "type": "Point"}, "properties": {"category": "sports", "location": "Australia", "sentiment": "Negative", "title": "Clijsters hope on Aussie Open", "topic": "Clijsters hope on Aussie Open"}, "type": "Feature"}, {"geometry": {"coordinates": [5.369953, 43.296174], "type": "Point"}, "properties": {"category": "sports", "location": "Marseille", "sentiment": "Negative", "title": "Rusedski forced out in Marseille", "topic": "Rusedski forced out in Marseille"}, "type": "Feature"}, {"geometry": {"coordinates": [-77.696936, 39.252879], "type": "Point"}, "properties": {"category": "sports", "location": "Britain", "sentiment": "Negative", "title": "Koubek suspended after drugs test", "topic": "Koubek suspended after drugs test"}, "type": "Feature"}, {"geometry": {"coordinates": [4.399708, 51.22111], "type": "Point"}, "properties": {"category": "sports", "location": "Antwerp", "sentiment": "Negative", "title": "Clijsters set for February return", "topic": "Clijsters set for February return"}, "type": "Feature"}, {"geometry": {"coordinates": [144.963161, -37.814218], "type": "Point"}, "properties": {"category": "sports", "location": "Melbourne", "sentiment": "Negative", "title": "Philippoussis doubt over Open bid", "topic": "Philippoussis doubt over Open bid"}, "type": "Feature"}, {"geometry": {"coordinates": [-4.838065, 39.326234], "type": "Point"}, "properties": {"category": "sports", "location": "Spain", "sentiment": "Negative", "title": "Nadal puts Spain 2-0 up", "topic": "Nadal puts Spain 2-0 up"}, "type": "Feature"}, {"geometry": {"coordinates": [11.575382, 48.137108], "type": "Point"}, "properties": {"category": "entertainment", "location": "Munich", "sentiment": "Negative", "title": "Oasis star fined for German brawl", "topic": "Oasis star fined for German brawl"}, "type": "Feature"}, {"geometry": {"coordinates": [-118.242766, 34.053691], "type": "Point"}, "properties": {"category": "entertainment", "location": "Los Angeles", "sentiment": "Negative", "title": "Johnny Cash manager Holiff dies", "topic": "Johnny Cash manager Holiff dies"}, "type": "Feature"}, {"geometry": {"coordinates": [-113.080273, 48.342293], "type": "Point"}, "properties": {"category": "entertainment", "location": "Palookaville", "sentiment": "Negative", "title": "Dance music not dead says Fatboy", "topic": "Dance music not dead says Fatboy"}, "type": "Feature"}, {"geometry": {"coordinates": [-3.276575, 54.702354], "type": "Point"}, "properties": {"category": "entertainment", "location": "UK", "sentiment": "Negative", "title": "Elvis 'set for chart hat-trick'", "topic": "Elvis 'set for chart hat-trick'"}, "type": "Feature"}, {"geometry": {"coordinates": [0.0, 0.0], "type": "Point"}, "properties": {"category": "entertainment", "location": "St Fintian's", "sentiment": "Negative", "title": "Label withdraws McFadden's video", "topic": "Label withdraws McFadden's video"}, "type": "Feature"}, {"geometry": {"coordinates": [-100.445882, 39.78373], "type": "Point"}, "properties": {"category": "entertainment", "location": "US", "sentiment": "Negative", "title": "Beatles suits sell for $110,000", "topic": "Beatles suits sell for $110,000"}, "type": "Feature"}, {"geometry": {"coordinates": [-100.445882, 39.78373], "type": "Point"}, "properties": {"category": "entertainment", "location": "US", "sentiment": "Negative", "title": "Britney attacks 'false tabloids'", "topic": "Britney attacks 'false tabloids'"}, "type": "Feature"}, {"geometry": {"coordinates": [13.373242, 52.553892], "type": "Point"}, "properties": {"category": "entertainment", "location": "Aaliyah", "sentiment": "Negative", "title": "Aaliyah claim dismissed by court", "topic": "Aaliyah claim dismissed by court"}, "type": "Feature"}, {"geometry": {"coordinates": [-118.242766, 34.053691], "type": "Point"}, "properties": {"category": "entertainment", "location": "Los Angeles", "sentiment": "Negative", "title": "Vibe awards back despite violence", "topic": "Vibe awards back despite violence"}, "type": "Feature"}, {"geometry": {"coordinates": [-3.276575, 54.702354], "type": "Point"}, "properties": {"category": "entertainment", "location": "UK", "sentiment": "Negative", "title": "Singer Sizzla jailed for swearing", "topic": "Singer Sizzla jailed for swearing"}, "type": "Feature"}, {"geometry": {"coordinates": [-1.902691, 52.479699], "type": "Point"}, "properties": {"category": "entertainment", "location": "Birmingham", "sentiment": "Negative", "title": "Singer Knight backs anti-gun song", "topic": "Singer Knight backs anti-gun song"}, "type": "Feature"}, {"geometry": {"coordinates": [-0.127647, 51.507322], "type": "Point"}, "properties": {"category": "entertainment", "location": "London", "sentiment": "Negative", "title": "Rocker Doherty in on-stage fight", "topic": "Rocker Doherty in on-stage fight"}, "type": "Feature"}, {"geometry": {"coordinates": [-100.445882, 39.78373], "type": "Point"}, "properties": {"category": "entertainment", "location": "US", "sentiment": "Negative", "title": "Patti Smith to host arts festival", "topic": "Patti Smith to host arts festival"}, "type": "Feature"}, {"geometry": {"coordinates": [-100.445882, 39.78373], "type": "Point"}, "properties": {"category": "entertainment", "location": "US", "sentiment": "Negative", "title": "Rapper Snoop Dogg sued for 'rape'", "topic": "Rapper Snoop Dogg sued for 'rape'"}, "type": "Feature"}, {"geometry": {"coordinates": [-0.127647, 51.507322], "type": "Point"}, "properties": {"category": "entertainment", "location": "London", "sentiment": "Negative", "title": "Manics in charge of BBC 6 Music", "topic": "Manics in charge of BBC 6 Music"}, "type": "Feature"}, {"geometry": {"coordinates": [-3.276575, 54.702354], "type": "Point"}, "properties": {"category": "entertainment", "location": "UK", "sentiment": "Negative", "title": "Deal to ban 'homophobic' reggae", "topic": "Deal to ban 'homophobic' reggae"}, "type": "Feature"}, {"geometry": {"coordinates": [-0.127647, 51.507322], "type": "Point"}, "properties": {"category": "entertainment", "location": "London", "sentiment": "Negative", "title": "Spears seeks aborted tour payment", "topic": "Spears seeks aborted tour payment"}, "type": "Feature"}, {"geometry": {"coordinates": [1.313423, 51.125127], "type": "Point"}, "properties": {"category": "politics", "location": "Dover", "sentiment": "Negative", "title": "David Blunkett in quotes", "topic": "David Blunkett in quotes"}, "type": "Feature"}, {"geometry": {"coordinates": [-8.476169, 51.920265], "type": "Point"}, "properties": {"category": "politics", "location": "Commons", "sentiment": "Negative", "title": "Blair rejects Iraq advice calls", "topic": "Blair rejects Iraq advice calls"}, "type": "Feature"}, {"geometry": {"coordinates": [-77.696936, 39.252879], "type": "Point"}, "properties": {"category": "politics", "location": "Britain", "sentiment": "Negative", "title": "Profile: David Blunkett", "topic": "Profile: David Blunkett"}, "type": "Feature"}, {"geometry": {"coordinates": [-0.127647, 51.507322], "type": "Point"}, "properties": {"category": "politics", "location": "London", "sentiment": "Negative", "title": "Terror suspects face house arrest", "topic": "Terror suspects face house arrest"}, "type": "Feature"}, {"geometry": {"coordinates": [-3.276575, 54.702354], "type": "Point"}, "properties": {"category": "politics", "location": "UK", "sentiment": "Negative", "title": "Election 'could be terror target'", "topic": "Election 'could be terror target'"}, "type": "Feature"}, {"geometry": {"coordinates": [44.174977, 33.095579], "type": "Point"}, "properties": {"category": "politics", "location": "Iraq", "sentiment": "Negative", "title": "Goldsmith: 'I was not leant on'", "topic": "Goldsmith: 'I was not leant on'"}, "type": "Feature"}, {"geometry": {"coordinates": [-8.237228, 55.264428], "type": "Point"}, "properties": {"category": "politics", "location": "Tory", "sentiment": "Negative", "title": "Blair defends terror law changes", "topic": "Blair defends terror law changes"}, "type": "Feature"}, {"geometry": {"coordinates": [-1.264906, 52.531021], "type": "Point"}, "properties": {"category": "politics", "location": "England", "sentiment": "Negative", "title": "Woolf murder sentence rethink", "topic": "Woolf murder sentence rethink"}, "type": "Feature"}, {"geometry": {"coordinates": [6.79781, 50.708863], "type": "Point"}, "properties": {"category": "politics", "location": "Lib Dem", "sentiment": "Negative", "title": "Clarke to press on with ID cards", "topic": "Clarke to press on with ID cards"}, "type": "Feature"}, {"geometry": {"coordinates": [-3.276575, 54.702354], "type": "Point"}, "properties": {"category": "politics", "location": "UK", "sentiment": "Negative", "title": "Guantanamo four questioned", "topic": "Guantanamo four questioned"}, "type": "Feature"}, {"geometry": {"coordinates": [-100.445882, 39.78373], "type": "Point"}, "properties": {"category": "politics", "location": "US", "sentiment": "Negative", "title": "Guantanamo four free in weeks", "topic": "Guantanamo four free in weeks"}, "type": "Feature"}, {"geometry": {"coordinates": [-1.264906, 52.531021], "type": "Point"}, "properties": {"category": "politics", "location": "England", "sentiment": "Negative", "title": "MPs to debate 'euthanasia laws'", "topic": "MPs to debate 'euthanasia laws'"}, "type": "Feature"}, {"geometry": {"coordinates": [-100.445882, 39.78373], "type": "Point"}, "properties": {"category": "politics", "location": "US", "sentiment": "Negative", "title": "Guantanamo man 'suing government'", "topic": "Guantanamo man 'suing government'"}, "type": "Feature"}, {"geometry": {"coordinates": [-1.264906, 52.531021], "type": "Point"}, "properties": {"category": "politics", "location": "England", "sentiment": "Negative", "title": "Blunkett sorry over murder plan", "topic": "Blunkett sorry over murder plan"}, "type": "Feature"}, {"geometry": {"coordinates": [-77.696936, 39.252879], "type": "Point"}, "properties": {"category": "politics", "location": "Britain", "sentiment": "Negative", "title": "Terror detainees win Lords appeal", "topic": "Terror detainees win Lords appeal"}, "type": "Feature"}, {"geometry": {"coordinates": [-3.703582, 40.416705], "type": "Point"}, "properties": {"category": "politics", "location": "Madrid", "sentiment": "Negative", "title": "Clarke faces ID cards rebellion", "topic": "Clarke faces ID cards rebellion"}, "type": "Feature"}, {"geometry": {"coordinates": [-1.264906, 52.531021], "type": "Point"}, "properties": {"category": "politics", "location": "England", "sentiment": "Negative", "title": "Parliament's record of scandal", "topic": "Parliament's record of scandal"}, "type": "Feature"}, {"geometry": {"coordinates": [-100.445882, 39.78373], "type": "Point"}, "properties": {"category": "politics", "location": "US", "sentiment": "Negative", "title": "Guantanamo pair's passport ban", "topic": "Guantanamo pair's passport ban"}, "type": "Feature"}, {"geometry": {"coordinates": [-0.127647, 51.507322], "type": "Point"}, "properties": {"category": "politics", "location": "London", "sentiment": "Negative", "title": "Peace demo appeal rejected", "topic": "Peace demo appeal rejected"}, "type": "Feature"}, {"geometry": {"coordinates": [-77.696936, 39.252879], "type": "Point"}, "properties": {"category": "politics", "location": "Britain", "sentiment": "Negative", "title": "UK 'discriminated against Roma'", "topic": "UK 'discriminated against Roma'"}, "type": "Feature"}, {"geometry": {"coordinates": [-3.276575, 54.702354], "type": "Point"}, "properties": {"category": "politics", "location": "UK", "sentiment": "Negative", "title": "Iraqis win death test case probe", "topic": "Iraqis win death test case probe"}, "type": "Feature"}, {"geometry": {"coordinates": [-77.696936, 39.252879], "type": "Point"}, "properties": {"category": "politics", "location": "Britain", "sentiment": "Negative", "title": "Kennedy to make temple address", "topic": "Kennedy to make temple address"}, "type": "Feature"}, {"geometry": {"coordinates": [-1.264906, 52.531021], "type": "Point"}, "properties": {"category": "politics", "location": "England", "sentiment": "Negative", "title": "Top judge clashes with ministers", "topic": "Top judge clashes with ministers"}, "type": "Feature"}, {"geometry": {"coordinates": [-77.696936, 39.252879], "type": "Point"}, "properties": {"category": "politics", "location": "Britain", "sentiment": "Negative", "title": "Terror powers expose 'tyranny'", "topic": "Terror powers expose 'tyranny'"}, "type": "Feature"}, {"geometry": {"coordinates": [-3.276575, 54.702354], "type": "Point"}, "properties": {"category": "politics", "location": "UK", "sentiment": "Negative", "title": "Ex-PM Lord Callaghan dies aged 92", "topic": "Ex-PM Lord Callaghan dies aged 92"}, "type": "Feature"}, {"geometry": {"coordinates": [-1.264906, 52.531021], "type": "Point"}, "properties": {"category": "politics", "location": "England", "sentiment": "Negative", "title": "Plaid MP's cottage arson claim", "topic": "Plaid MP's cottage arson claim"}, "type": "Feature"}, {"geometry": {"coordinates": [-77.696936, 39.252879], "type": "Point"}, "properties": {"category": "politics", "location": "Britain", "sentiment": "Negative", "title": "Lawyer attacks anti-terror laws", "topic": "Lawyer attacks anti-terror laws"}, "type": "Feature"}, {"geometry": {"coordinates": [-3.276575, 54.702354], "type": "Point"}, "properties": {"category": "politics", "location": "UK", "sentiment": "Negative", "title": "Ministers 'naive' over phone-taps", "topic": "Ministers 'naive' over phone-taps"}, "type": "Feature"}, {"geometry": {"coordinates": [-8.237228, 55.264428], "type": "Point"}, "properties": {"category": "politics", "location": "Tory", "sentiment": "Negative", "title": "'Best person' for top legal job", "topic": "'Best person' for top legal job"}, "type": "Feature"}, {"geometry": {"coordinates": [-100.445882, 39.78373], "type": "Point"}, "properties": {"category": "politics", "location": "US", "sentiment": "Negative", "title": "Act on detention ruling, UK urged", "topic": "Act on detention ruling, UK urged"}, "type": "Feature"}, {"geometry": {"coordinates": [-1.264906, 52.531021], "type": "Point"}, "properties": {"category": "politics", "location": "England", "sentiment": "Negative", "title": "MPs' murder sentence concern", "topic": "MPs' murder sentence concern"}, "type": "Feature"}, {"geometry": {"coordinates": [-3.276575, 54.702354], "type": "Point"}, "properties": {"category": "politics", "location": "UK", "sentiment": "Negative", "title": "Opposition grows to house arrests", "topic": "Opposition grows to house arrests"}, "type": "Feature"}, {"geometry": {"coordinates": [-77.696936, 39.252879], "type": "Point"}, "properties": {"category": "politics", "location": "Britain", "sentiment": "Negative", "title": "Lords wrong on detainees - Straw", "topic": "Lords wrong on detainees - Straw"}, "type": "Feature"}, {"geometry": {"coordinates": [-77.696936, 39.252879], "type": "Point"}, "properties": {"category": "politics", "location": "Britain", "sentiment": "Negative", "title": "Pakistani women 'must not hide'", "topic": "Pakistani women 'must not hide'"}, "type": "Feature"}, {"geometry": {"coordinates": [-3.276575, 54.702354], "type": "Point"}, "properties": {"category": "politics", "location": "UK", "sentiment": "Negative", "title": "Anti-terror plan faces first test", "topic": "Anti-terror plan faces first test"}, "type": "Feature"}, {"geometry": {"coordinates": [-100.445882, 39.78373], "type": "Point"}, "properties": {"category": "politics", "location": "US", "sentiment": "Negative", "title": "Clarke defends terror detentions", "topic": "Clarke defends terror detentions"}, "type": "Feature"}, {"geometry": {"coordinates": [-77.696936, 39.252879], "type": "Point"}, "properties": {"category": "politics", "location": "Britain", "sentiment": "Negative", "title": "UK plan to deport terror suspects", "topic": "UK plan to deport terror suspects"}, "type": "Feature"}, {"geometry": {"coordinates": [-100.445882, 39.78373], "type": "Point"}, "properties": {"category": "politics", "location": "US", "sentiment": "Negative", "title": "Amnesty chief laments war failure", "topic": "Amnesty chief laments war failure"}, "type": "Feature"}, {"geometry": {"coordinates": [44.174977, 33.095579], "type": "Point"}, "properties": {"category": "politics", "location": "Iraq", "sentiment": "Negative", "title": "Iraq advice claim sparks new row", "topic": "Iraq advice claim sparks new row"}, "type": "Feature"}, {"geometry": {"coordinates": [-3.276575, 54.702354], "type": "Point"}, "properties": {"category": "politics", "location": "UK", "sentiment": "Negative", "title": "New rules tackle 'sham weddings'", "topic": "New rules tackle 'sham weddings'"}, "type": "Feature"}, {"geometry": {"coordinates": [-8.476169, 51.920265], "type": "Point"}, "properties": {"category": "politics", "location": "Commons", "sentiment": "Negative", "title": "Falconer rebuts 'charade' claims", "topic": "Falconer rebuts 'charade' claims"}, "type": "Feature"}, {"geometry": {"coordinates": [-8.237228, 55.264428], "type": "Point"}, "properties": {"category": "politics", "location": "Tory", "sentiment": "Negative", "title": "Tories leave door open for Archer", "topic": "Tories leave door open for Archer"}, "type": "Feature"}, {"geometry": {"coordinates": [-4.114052, 56.786111], "type": "Point"}, "properties": {"category": "politics", "location": "Scotland", "sentiment": "Negative", "title": "Ministers lose slopping out case", "topic": "Ministers lose slopping out case"}, "type": "Feature"}, {"geometry": {"coordinates": [-100.445882, 39.78373], "type": "Point"}, "properties": {"category": "politics", "location": "US", "sentiment": "Negative", "title": "US seeks new $280bn smoker ruling", "topic": "US seeks new $280bn smoker ruling"}, "type": "Feature"}, {"geometry": {"coordinates": [-100.445882, 39.78373], "type": "Point"}, "properties": {"category": "politics", "location": "US", "sentiment": "Negative", "title": "Tobacco giants hail court ruling", "topic": "Tobacco giants hail court ruling"}, "type": "Feature"}, {"geometry": {"coordinates": [0.0, 0.0], "type": "Point"}, "properties": {"category": "politics", "location": "LA", "sentiment": "Negative", "title": "Spector facing more legal action", "topic": "Spector facing more legal action"}, "type": "Feature"}, {"geometry": {"coordinates": [-1.264906, 52.531021], "type": "Point"}, "properties": {"category": "sports", "location": "England", "sentiment": "Negative", "title": "O'Connell rejects Lions rumours", "topic": "O'Connell rejects Lions rumours"}, "type": "Feature"}, {"geometry": {"coordinates": [-1.264906, 52.531021], "type": "Point"}, "properties": {"category": "sports", "location": "England", "sentiment": "Negative", "title": "Moore questions captaincy", "topic": "Moore questions captaincy"}, "type": "Feature"}, {"geometry": {"coordinates": [-4.114052, 56.786111], "type": "Point"}, "properties": {"category": "sports", "location": "Scotland", "sentiment": "Negative", "title": "Scots suffer another injury blow", "topic": "Scots suffer another injury blow"}, "type": "Feature"}, {"geometry": {"coordinates": [-1.264906, 52.531021], "type": "Point"}, "properties": {"category": "sports", "location": "England", "sentiment": "Negative", "title": "Dawson joins England injury list", "topic": "Dawson joins England injury list"}, "type": "Feature"}, {"geometry": {"coordinates": [-7.97946, 52.865196], "type": "Point"}, "properties": {"category": "sports", "location": "Ireland", "sentiment": "Negative", "title": "O'Driscoll out of Scotland game", "topic": "O'Driscoll out of Scotland game"}, "type": "Feature"}, {"geometry": {"coordinates": [-1.264906, 52.531021], "type": "Point"}, "properties": {"category": "sports", "location": "England", "sentiment": "Negative", "title": "England coach faces rap after row", "topic": "England coach faces rap after row"}, "type": "Feature"}, {"geometry": {"coordinates": [-1.264906, 52.531021], "type": "Point"}, "properties": {"category": "sports", "location": "England", "sentiment": "Negative", "title": "Tindall wants second opinion", "topic": "Tindall wants second opinion"}, "type": "Feature"}, {"geometry": {"coordinates": [-4.114052, 56.786111], "type": "Point"}, "properties": {"category": "sports", "location": "Scotland", "sentiment": "Negative", "title": "Wales silent on Grand Slam talk", "topic": "Wales silent on Grand Slam talk"}, "type": "Feature"}, {"geometry": {"coordinates": [-1.264906, 52.531021], "type": "Point"}, "properties": {"category": "sports", "location": "England", "sentiment": "Negative", "title": "Teenager Tait picked for England", "topic": "Teenager Tait picked for England"}, "type": "Feature"}, {"geometry": {"coordinates": [-1.264906, 52.531021], "type": "Point"}, "properties": {"category": "sports", "location": "England", "sentiment": "Negative", "title": "Wilkinson return 'unlikely'", "topic": "Wilkinson return 'unlikely'"}, "type": "Feature"}, {"geometry": {"coordinates": [-1.264906, 52.531021], "type": "Point"}, "properties": {"category": "sports", "location": "England", "sentiment": "Negative", "title": "Vickery out of Six Nations", "topic": "Vickery out of Six Nations"}, "type": "Feature"}, {"geometry": {"coordinates": [-1.264906, 52.531021], "type": "Point"}, "properties": {"category": "sports", "location": "England", "sentiment": "Negative", "title": "England's defensive crisis grows", "topic": "England's defensive crisis grows"}, "type": "Feature"}, {"geometry": {"coordinates": [-1.264906, 52.531021], "type": "Point"}, "properties": {"category": "sports", "location": "England", "sentiment": "Negative", "title": "Wales get Williams fitness boost", "topic": "Wales get Williams fitness boost"}, "type": "Feature"}, {"geometry": {"coordinates": [-1.264906, 52.531021], "type": "Point"}, "properties": {"category": "sports", "location": "England", "sentiment": "Negative", "title": "Davies favours Gloucester future", "topic": "Davies favours Gloucester future"}, "type": "Feature"}, {"geometry": {"coordinates": [1.888334, 46.603354], "type": "Point"}, "properties": {"category": "sports", "location": "France", "sentiment": "Negative", "title": "Irish finish with home game", "topic": "Irish finish with home game"}, "type": "Feature"}, {"geometry": {"coordinates": [-3.73893, 52.292812], "type": "Point"}, "properties": {"category": "sports", "location": "Wales", "sentiment": "Negative", "title": "Charvis set to lose fitness bid", "topic": "Charvis set to lose fitness bid"}, "type": "Feature"}, {"geometry": {"coordinates": [0.004568, 51.528097], "type": "Point"}, "properties": {"category": "sports", "location": "West Ham", "sentiment": "Negative", "title": "Injury doubts beset Wales squad", "topic": "Injury doubts beset Wales squad"}, "type": "Feature"}, {"geometry": {"coordinates": [-1.264906, 52.531021], "type": "Point"}, "properties": {"category": "sports", "location": "England", "sentiment": "Negative", "title": "Reaction from Spanish press", "topic": "Reaction from Spanish press"}, "type": "Feature"}, {"geometry": {"coordinates": [-1.264906, 52.531021], "type": "Point"}, "properties": {"category": "sports", "location": "England", "sentiment": "Negative", "title": "Player burn-out worries Robinson", "topic": "Player burn-out worries Robinson"}, "type": "Feature"}, {"geometry": {"coordinates": [-1.264906, 52.531021], "type": "Point"}, "properties": {"category": "sports", "location": "England", "sentiment": "Negative", "title": "Barkley fit for match in Ireland", "topic": "Barkley fit for match in Ireland"}, "type": "Feature"}, {"geometry": {"coordinates": [-1.264906, 52.531021], "type": "Point"}, "properties": {"category": "sports", "location": "England", "sentiment": "Negative", "title": "Bell set for England debut", "topic": "Bell set for England debut"}, "type": "Feature"}, {"geometry": {"coordinates": [-1.264906, 52.531021], "type": "Point"}, "properties": {"category": "sports", "location": "England", "sentiment": "Negative", "title": "Wales critical of clumsy Grewcock", "topic": "Wales critical of clumsy Grewcock"}, "type": "Feature"}, {"geometry": {"coordinates": [-4.114052, 56.786111], "type": "Point"}, "properties": {"category": "sports", "location": "Scotland", "sentiment": "Negative", "title": "Ref stands by Scotland decisions", "topic": "Ref stands by Scotland decisions"}, "type": "Feature"}, {"geometry": {"coordinates": [1.888334, 46.603354], "type": "Point"}, "properties": {"category": "sports", "location": "France", "sentiment": "Negative", "title": "Moody joins up with England", "topic": "Moody joins up with England"}, "type": "Feature"}, {"geometry": {"coordinates": [-1.264906, 52.531021], "type": "Point"}, "properties": {"category": "sports", "location": "England", "sentiment": "Negative", "title": "Double injury blow strikes Wales", "topic": "Double injury blow strikes Wales"}, "type": "Feature"}, {"geometry": {"coordinates": [12.674297, 42.638426], "type": "Point"}, "properties": {"category": "sports", "location": "Italy", "sentiment": "Negative", "title": "Wales make two changes for France", "topic": "Wales make two changes for France"}, "type": "Feature"}, {"geometry": {"coordinates": [-1.264906, 52.531021], "type": "Point"}, "properties": {"category": "sports", "location": "England", "sentiment": "Negative", "title": "Funding cut hits Wales Students", "topic": "Funding cut hits Wales Students"}, "type": "Feature"}, {"geometry": {"coordinates": [-7.97946, 52.865196], "type": "Point"}, "properties": {"category": "sports", "location": "Ireland", "sentiment": "Negative", "title": "Ireland win eclipses refereeing 'errors'", "topic": "Ireland win eclipses refereeing 'errors'"}, "type": "Feature"}, {"geometry": {"coordinates": [-1.264906, 52.531021], "type": "Point"}, "properties": {"category": "sports", "location": "England", "sentiment": "Negative", "title": "Lomu relishing return to action", "topic": "Lomu relishing return to action"}, "type": "Feature"}, {"geometry": {"coordinates": [-1.264906, 52.531021], "type": "Point"}, "properties": {"category": "sports", "location": "England", "sentiment": "Negative", "title": "Wilkinson fit to face Edinburgh", "topic": "Wilkinson fit to face Edinburgh"}, "type": "Feature"}, {"geometry": {"coordinates": [-4.114052, 56.786111], "type": "Point"}, "properties": {"category": "sports", "location": "Scotland", "sentiment": "Negative", "title": "Calder fears for Scottish rugby", "topic": "Calder fears for Scottish rugby"}, "type": "Feature"}, {"geometry": {"coordinates": [-1.264906, 52.531021], "type": "Point"}, "properties": {"category": "sports", "location": "England", "sentiment": "Negative", "title": "Vickery upbeat about arm injury", "topic": "Vickery upbeat about arm injury"}, "type": "Feature"}, {"geometry": {"coordinates": [12.674297, 42.638426], "type": "Point"}, "properties": {"category": "sports", "location": "Italy", "sentiment": "Negative", "title": "Taylor poised for Scotland return", "topic": "Taylor poised for Scotland return"}, "type": "Feature"}, {"geometry": {"coordinates": [-3.276575, 54.702354], "type": "Point"}, "properties": {"category": "sports", "location": "UK", "sentiment": "Negative", "title": "Ban hits Half-Life 2 pirates hard", "topic": "Ban hits Half-Life 2 pirates hard"}, "type": "Feature"}, {"geometry": {"coordinates": [-1.264906, 52.531021], "type": "Point"}, "properties": {"category": "sports", "location": "England", "sentiment": "Negative", "title": "Losing yourself in online gaming", "topic": "Losing yourself in online gaming"}, "type": "Feature"}, {"geometry": {"coordinates": [-0.127647, 51.507322], "type": "Point"}, "properties": {"category": "sports", "location": "London", "sentiment": "Negative", "title": "Games maker fights for survival", "topic": "Games maker fights for survival"}, "type": "Feature"}, {"geometry": {"coordinates": [-0.728957, 51.995065], "type": "Point"}, "properties": {"category": "sports", "location": "New York's", "sentiment": "Negative", "title": "Rapper 50 Cent ends protege feud", "topic": "Rapper 50 Cent ends protege feud"}, "type": "Feature"}, {"geometry": {"coordinates": [-73.473493, 5.006728], "type": "Point"}, "properties": {"category": "sports", "location": "Xbox", "sentiment": "Negative", "title": "Blinx sequel purrs nicely", "topic": "Blinx sequel purrs nicely"}, "type": "Feature"}, {"geometry": {"coordinates": [0.0, 0.0], "type": "Point"}, "properties": {"category": "sports", "location": "Xboxes", "sentiment": "Negative", "title": "Xbox power cable 'fire fear'", "topic": "Xbox power cable 'fire fear'"}, "type": "Feature"}, {"geometry": {"coordinates": [-3.276575, 54.702354], "type": "Point"}, "properties": {"category": "sports", "location": "UK", "sentiment": "Negative", "title": "Parents face video game lessons", "topic": "Parents face video game lessons"}, "type": "Feature"}, {"geometry": {"coordinates": [-0.127647, 51.507322], "type": "Point"}, "properties": {"category": "sports", "location": "London", "sentiment": "Negative", "title": "Argonaut founder rebuilds empire", "topic": "Argonaut founder rebuilds empire"}, "type": "Feature"}, {"geometry": {"coordinates": [-64.421016, -31.654797], "type": "Point"}, "properties": {"category": "sports", "location": "Camara", "sentiment": "Negative", "title": "Old Firm pair handed suspensions", "topic": "Old Firm pair handed suspensions"}, "type": "Feature"}, {"geometry": {"coordinates": [-100.445882, 39.78373], "type": "Point"}, "properties": {"category": "sports", "location": "US", "sentiment": "Negative", "title": "GTA sequel is criminally good", "topic": "GTA sequel is criminally good"}, "type": "Feature"}, {"geometry": {"coordinates": [23.728305, 37.983941], "type": "Point"}, "properties": {"category": "sports", "location": "Athens", "sentiment": "Negative", "title": "Greek duo cleared in doping case", "topic": "Greek duo cleared in doping case"}, "type": "Feature"}, {"geometry": {"coordinates": [-100.445882, 39.78373], "type": "Point"}, "properties": {"category": "sports", "location": "US", "sentiment": "Negative", "title": "Jones medals 'must go if guilty'", "topic": "Jones medals 'must go if guilty'"}, "type": "Feature"}, {"geometry": {"coordinates": [151.216454, -33.854816], "type": "Point"}, "properties": {"category": "sports", "location": "Sydney", "sentiment": "Negative", "title": "Greek pair set for hearing", "topic": "Greek pair set for hearing"}, "type": "Feature"}, {"geometry": {"coordinates": [23.728305, 37.983941], "type": "Point"}, "properties": {"category": "sports", "location": "Athens", "sentiment": "Negative", "title": "Wada will appeal against ruling", "topic": "Wada will appeal against ruling"}, "type": "Feature"}, {"geometry": {"coordinates": [151.216454, -33.854816], "type": "Point"}, "properties": {"category": "sports", "location": "Sydney", "sentiment": "Negative", "title": "Greek sprinters suspended by IAAF", "topic": "Greek sprinters suspended by IAAF"}, "type": "Feature"}, {"geometry": {"coordinates": [-100.445882, 39.78373], "type": "Point"}, "properties": {"category": "sports", "location": "US", "sentiment": "Negative", "title": "Jones files Conte lawsuit", "topic": "Jones files Conte lawsuit"}, "type": "Feature"}, {"geometry": {"coordinates": [-0.895508, 53.227233], "type": "Point"}, "properties": {"category": "sports", "location": "Tuxford", "sentiment": "Negative", "title": "Hatfield executives go on trial", "topic": "Hatfield executives go on trial"}, "type": "Feature"}, {"geometry": {"coordinates": [-74.006015, 40.712728], "type": "Point"}, "properties": {"category": "sports", "location": "New York City", "sentiment": "Negative", "title": "No jail for singer Courtney Love", "topic": "No jail for singer Courtney Love"}, "type": "Feature"}, {"geometry": {"coordinates": [151.216454, -33.854816], "type": "Point"}, "properties": {"category": "sports", "location": "Sydney", "sentiment": "Negative", "title": "Thanou bullish over drugs hearing", "topic": "Thanou bullish over drugs hearing"}, "type": "Feature"}, {"geometry": {"coordinates": [21.987713, 38.995368], "type": "Point"}, "properties": {"category": "sports", "location": "Greece", "sentiment": "Negative", "title": "Thanou desperate to make return", "topic": "Thanou desperate to make return"}, "type": "Feature"}, {"geometry": {"coordinates": [-87.624421, 41.875562], "type": "Point"}, "properties": {"category": "sports", "location": "Chicago", "sentiment": "Negative", "title": "IAAF awaits Greek pair's response", "topic": "IAAF awaits Greek pair's response"}, "type": "Feature"}, {"geometry": {"coordinates": [-100.445882, 39.78373], "type": "Point"}, "properties": {"category": "sports", "location": "US", "sentiment": "Negative", "title": "Jones files lawsuit against Conte", "topic": "Jones files lawsuit against Conte"}, "type": "Feature"}, {"geometry": {"coordinates": [-77.696936, 39.252879], "type": "Point"}, "properties": {"category": "politics", "location": "Britain", "sentiment": "Negative", "title": "Labour's four little words", "topic": "Labour's four little words"}, "type": "Feature"}, {"geometry": {"coordinates": [-100.445882, 39.78373], "type": "Point"}, "properties": {"category": "politics", "location": "US", "sentiment": "Negative", "title": "No election TV debate, says Blair", "topic": "No election TV debate, says Blair"}, "type": "Feature"}, {"geometry": {"coordinates": [44.174977, 33.095579], "type": "Point"}, "properties": {"category": "politics", "location": "Iraq", "sentiment": "Negative", "title": "Mandelson warning to BBC", "topic": "Mandelson warning to BBC"}, "type": "Feature"}, {"geometry": {"coordinates": [-3.276575, 54.702354], "type": "Point"}, "properties": {"category": "politics", "location": "UK", "sentiment": "Negative", "title": "Howard unveils Tory asylum plans", "topic": "Howard unveils Tory asylum plans"}, "type": "Feature"}, {"geometry": {"coordinates": [-93.39049, 47.180776], "type": "Point"}, "properties": {"category": "politics", "location": "Blackberry", "sentiment": "Negative", "title": "Campbell: E-mail row 'silly fuss'", "topic": "Campbell: E-mail row 'silly fuss'"}, "type": "Feature"}, {"geometry": {"coordinates": [134.755, -24.776109], "type": "Point"}, "properties": {"category": "politics", "location": "Australia", "sentiment": "Negative", "title": "Tory expert denies defeat warning", "topic": "Tory expert denies defeat warning"}, "type": "Feature"}, {"geometry": {"coordinates": [-0.140056, 50.821463], "type": "Point"}, "properties": {"category": "politics", "location": "Brighton", "sentiment": "Negative", "title": "Manchester wins Labour conference", "topic": "Manchester wins Labour conference"}, "type": "Feature"}, {"geometry": {"coordinates": [-3.276575, 54.702354], "type": "Point"}, "properties": {"category": "politics", "location": "UK", "sentiment": "Negative", "title": "Clarke to unveil immigration plan", "topic": "Clarke to unveil immigration plan"}, "type": "Feature"}, {"geometry": {"coordinates": [44.174977, 33.095579], "type": "Point"}, "properties": {"category": "politics", "location": "Iraq", "sentiment": "Negative", "title": "Mandelson warns BBC on Campbell", "topic": "Mandelson warns BBC on Campbell"}, "type": "Feature"}, {"geometry": {"coordinates": [-8.476169, 51.920265], "type": "Point"}, "properties": {"category": "politics", "location": "Commons", "sentiment": "Negative", "title": "Tory backing for ID cards", "topic": "Tory backing for ID cards"}, "type": "Feature"}, {"geometry": {"coordinates": [44.174977, 33.095579], "type": "Point"}, "properties": {"category": "politics", "location": "Iraq", "sentiment": "Negative", "title": "Labour's core support takes stock", "topic": "Labour's core support takes stock"}, "type": "Feature"}, {"geometry": {"coordinates": [-8.476169, 51.920265], "type": "Point"}, "properties": {"category": "politics", "location": "Commons", "sentiment": "Negative", "title": "Milburn defends poster campaign", "topic": "Milburn defends poster campaign"}, "type": "Feature"}, {"geometry": {"coordinates": [-3.73893, 52.292812], "type": "Point"}, "properties": {"category": "politics", "location": "Wales", "sentiment": "Negative", "title": "Tories 'would cut number of MPs'", "topic": "Tories 'would cut number of MPs'"}, "type": "Feature"}, {"geometry": {"coordinates": [-3.276575, 54.702354], "type": "Point"}, "properties": {"category": "politics", "location": "UK", "sentiment": "Negative", "title": "Immigration to be election issue", "topic": "Immigration to be election issue"}, "type": "Feature"}, {"geometry": {"coordinates": [0.313853, 49.067771], "type": "Point"}, "properties": {"category": "politics", "location": "Normandy", "sentiment": "Negative", "title": "Tory 'stalking horse' Meyer dies", "topic": "Tory 'stalking horse' Meyer dies"}, "type": "Feature"}, {"geometry": {"coordinates": [-0.127647, 51.507322], "type": "Point"}, "properties": {"category": "politics", "location": "London", "sentiment": "Negative", "title": "Blair moves to woo Jewish voters", "topic": "Blair moves to woo Jewish voters"}, "type": "Feature"}, {"geometry": {"coordinates": [-77.696936, 39.252879], "type": "Point"}, "properties": {"category": "politics", "location": "Britain", "sentiment": "Negative", "title": "Labour accused of broken pledge", "topic": "Labour accused of broken pledge"}, "type": "Feature"}, {"geometry": {"coordinates": [-77.696936, 39.252879], "type": "Point"}, "properties": {"category": "politics", "location": "Britain", "sentiment": "Negative", "title": "Kennedy predicts bigger turnout", "topic": "Kennedy predicts bigger turnout"}, "type": "Feature"}, {"geometry": {"coordinates": [9.099972, 60.500021], "type": "Point"}, "properties": {"category": "politics", "location": "North West", "sentiment": "Negative", "title": "Lib Dems target the student vote", "topic": "Lib Dems target the student vote"}, "type": "Feature"}, {"geometry": {"coordinates": [-77.696936, 39.252879], "type": "Point"}, "properties": {"category": "politics", "location": "Britain", "sentiment": "Negative", "title": "Fox attacks Blair's Tory 'lies'", "topic": "Fox attacks Blair's Tory 'lies'"}, "type": "Feature"}, {"geometry": {"coordinates": [-1.264906, 52.531021], "type": "Point"}, "properties": {"category": "politics", "location": "England", "sentiment": "Negative", "title": "Abortion not a poll issue - Blair", "topic": "Abortion not a poll issue - Blair"}, "type": "Feature"}, {"geometry": {"coordinates": [-77.696936, 39.252879], "type": "Point"}, "properties": {"category": "politics", "location": "Britain", "sentiment": "Negative", "title": "February poll claim 'speculation'", "topic": "February poll claim 'speculation'"}, "type": "Feature"}, {"geometry": {"coordinates": [-77.696936, 39.252879], "type": "Point"}, "properties": {"category": "politics", "location": "Britain", "sentiment": "Negative", "title": "Lib Dems unveil election slogan", "topic": "Lib Dems unveil election slogan"}, "type": "Feature"}, {"geometry": {"coordinates": [-77.696936, 39.252879], "type": "Point"}, "properties": {"category": "politics", "location": "Britain", "sentiment": "Negative", "title": "UK heading wrong way, says Howard", "topic": "UK heading wrong way, says Howard"}, "type": "Feature"}, {"geometry": {"coordinates": [-77.696936, 39.252879], "type": "Point"}, "properties": {"category": "politics", "location": "Britain", "sentiment": "Negative", "title": "Blair 'up for it' ahead of poll", "topic": "Blair 'up for it' ahead of poll"}, "type": "Feature"}, {"geometry": {"coordinates": [-0.140056, 50.821463], "type": "Point"}, "properties": {"category": "politics", "location": "Brighton", "sentiment": "Negative", "title": "Labour chooses Manchester", "topic": "Labour chooses Manchester"}, "type": "Feature"}, {"geometry": {"coordinates": [134.755, -24.776109], "type": "Point"}, "properties": {"category": "politics", "location": "Australia", "sentiment": "Negative", "title": "Tory expert denies defeatism", "topic": "Tory expert denies defeatism"}, "type": "Feature"}, {"geometry": {"coordinates": [-4.114052, 56.786111], "type": "Point"}, "properties": {"category": "politics", "location": "Scotland", "sentiment": "Negative", "title": "Regiments' group in poll move", "topic": "Regiments' group in poll move"}, "type": "Feature"}, {"geometry": {"coordinates": [44.174977, 33.095579], "type": "Point"}, "properties": {"category": "politics", "location": "Iraq", "sentiment": "Negative", "title": "Muslims discuss election concerns", "topic": "Muslims discuss election concerns"}, "type": "Feature"}, {"geometry": {"coordinates": [-77.696936, 39.252879], "type": "Point"}, "properties": {"category": "politics", "location": "Britain", "sentiment": "Negative", "title": "Howard denies split over ID cards", "topic": "Howard denies split over ID cards"}, "type": "Feature"}, {"geometry": {"coordinates": [-77.696936, 39.252879], "type": "Point"}, "properties": {"category": "politics", "location": "Britain", "sentiment": "Negative", "title": "Howard attacks cost of asylum", "topic": "Howard attacks cost of asylum"}, "type": "Feature"}, {"geometry": {"coordinates": [-8.476169, 51.920265], "type": "Point"}, "properties": {"category": "politics", "location": "Commons", "sentiment": "Negative", "title": "Conservative backing for ID cards", "topic": "Conservative backing for ID cards"}, "type": "Feature"}, {"geometry": {"coordinates": [-77.696936, 39.252879], "type": "Point"}, "properties": {"category": "politics", "location": "Britain", "sentiment": "Negative", "title": "Conservative MP defects to Labour", "topic": "Conservative MP defects to Labour"}, "type": "Feature"}, {"geometry": {"coordinates": [-3.276575, 54.702354], "type": "Point"}, "properties": {"category": "politics", "location": "UK", "sentiment": "Negative", "title": "Lib Dems highlight problem debt", "topic": "Lib Dems highlight problem debt"}, "type": "Feature"}, {"geometry": {"coordinates": [-77.696936, 39.252879], "type": "Point"}, "properties": {"category": "politics", "location": "Britain", "sentiment": "Negative", "title": "UK heading wrong way - Howard", "topic": "UK heading wrong way - Howard"}, "type": "Feature"}, {"geometry": {"coordinates": [-3.276575, 54.702354], "type": "Point"}, "properties": {"category": "business", "location": "UK", "sentiment": "Negative", "title": "Golden rule boost for Chancellor", "topic": "Golden rule boost for Chancellor"}, "type": "Feature"}, {"geometry": {"coordinates": [-3.276575, 54.702354], "type": "Point"}, "properties": {"category": "business", "location": "UK", "sentiment": "Negative", "title": "Brown shrugs off economy fears", "topic": "Brown shrugs off economy fears"}, "type": "Feature"}, {"geometry": {"coordinates": [12.674297, 42.638426], "type": "Point"}, "properties": {"category": "business", "location": "Italy", "sentiment": "Negative", "title": "Italy to get economic action plan", "topic": "Italy to get economic action plan"}, "type": "Feature"}, {"geometry": {"coordinates": [-1.264906, 52.531021], "type": "Point"}, "properties": {"category": "business", "location": "England", "sentiment": "Negative", "title": "'Last chance' warning for voters", "topic": "'Last chance' warning for voters"}, "type": "Feature"}, {"geometry": {"coordinates": [-1.264906, 52.531021], "type": "Point"}, "properties": {"category": "business", "location": "England", "sentiment": "Negative", "title": "Budget to set scene for election", "topic": "Budget to set scene for election"}, "type": "Feature"}, {"geometry": {"coordinates": [-80.832875, 23.013134], "type": "Point"}, "properties": {"category": "business", "location": "Cuba", "sentiment": "Negative", "title": "Cuba winds back economic clock", "topic": "Cuba winds back economic clock"}, "type": "Feature"}, {"geometry": {"coordinates": [-0.127647, 51.507322], "type": "Point"}, "properties": {"category": "business", "location": "London", "sentiment": "Negative", "title": "MPs demand 'Budget leak' answers", "topic": "MPs demand 'Budget leak' answers"}, "type": "Feature"}, {"geometry": {"coordinates": [-8.237228, 55.264428], "type": "Point"}, "properties": {"category": "business", "location": "Tory", "sentiment": "Negative", "title": "Blair blasts Tory spending plans", "topic": "Blair blasts Tory spending plans"}, "type": "Feature"}, {"geometry": {"coordinates": [-77.696936, 39.252879], "type": "Point"}, "properties": {"category": "business", "location": "Britain", "sentiment": "Negative", "title": "Will the Budget bring out smiling voters?", "topic": "Will the Budget bring out smiling voters?"}, "type": "Feature"}, {"geometry": {"coordinates": [-100.445882, 39.78373], "type": "Point"}, "properties": {"category": "business", "location": "US", "sentiment": "Negative", "title": "The 'ticking budget' facing the US", "topic": "The 'ticking budget' facing the US"}, "type": "Feature"}, {"geometry": {"coordinates": [-77.696936, 39.252879], "type": "Point"}, "properties": {"category": "business", "location": "Britain", "sentiment": "Negative", "title": "Howard attacks 'pay later' Budget", "topic": "Howard attacks 'pay later' Budget"}, "type": "Feature"}, {"geometry": {"coordinates": [-77.696936, 39.252879], "type": "Point"}, "properties": {"category": "business", "location": "Britain", "sentiment": "Negative", "title": "Parties' plans for council tax", "topic": "Parties' plans for council tax"}, "type": "Feature"}, {"geometry": {"coordinates": [-77.696936, 39.252879], "type": "Point"}, "properties": {"category": "business", "location": "Britain", "sentiment": "Negative", "title": "Golden rule 'intact' says ex-aide", "topic": "Golden rule 'intact' says ex-aide"}, "type": "Feature"}, {"geometry": {"coordinates": [-83.113737, 32.329381], "type": "Point"}, "properties": {"category": "business", "location": "Georgia", "sentiment": "Negative", "title": "Georgia plans hidden asset pardon", "topic": "Georgia plans hidden asset pardon"}, "type": "Feature"}, {"geometry": {"coordinates": [-77.696936, 39.252879], "type": "Point"}, "properties": {"category": "business", "location": "Britain", "sentiment": "Negative", "title": "Lib Dems stress Budget trust gap", "topic": "Lib Dems stress Budget trust gap"}, "type": "Feature"}, {"geometry": {"coordinates": [44.174977, 33.095579], "type": "Point"}, "properties": {"category": "business", "location": "Iraq", "sentiment": "Negative", "title": "Blair ready to call election", "topic": "Blair ready to call election"}, "type": "Feature"}, {"geometry": {"coordinates": [121.412278, 14.133179], "type": "Point"}, "properties": {"category": "business", "location": "Yukos", "sentiment": "Negative", "title": "Yukos heading back to US courts", "topic": "Yukos heading back to US courts"}, "type": "Feature"}, {"geometry": {"coordinates": [-100.445882, 39.78373], "type": "Point"}, "properties": {"category": "business", "location": "US", "sentiment": "Negative", "title": "Yukos bankruptcy 'not US matter'", "topic": "Yukos bankruptcy 'not US matter'"}, "type": "Feature"}, {"geometry": {"coordinates": [-100.445882, 39.78373], "type": "Point"}, "properties": {"category": "business", "location": "US", "sentiment": "Negative", "title": "Yukos loses US bankruptcy battle", "topic": "Yukos loses US bankruptcy battle"}, "type": "Feature"}, {"geometry": {"coordinates": [121.412278, 14.133179], "type": "Point"}, "properties": {"category": "business", "location": "Yukos", "sentiment": "Negative", "title": "Minister hits out at Yukos sale", "topic": "Minister hits out at Yukos sale"}, "type": "Feature"}, {"geometry": {"coordinates": [121.412278, 14.133179], "type": "Point"}, "properties": {"category": "business", "location": "Yukos", "sentiment": "Negative", "title": "Gazprom 'in $36m back-tax claim'", "topic": "Gazprom 'in $36m back-tax claim'"}, "type": "Feature"}, {"geometry": {"coordinates": [-100.445882, 39.78373], "type": "Point"}, "properties": {"category": "business", "location": "US", "sentiment": "Negative", "title": "Yukos drops banks from court bid", "topic": "Yukos drops banks from court bid"}, "type": "Feature"}, {"geometry": {"coordinates": [0.0, 0.0], "type": "Point"}, "properties": {"category": "business", "location": "Yugansk", "sentiment": "Negative", "title": "Yukos unit buyer faces loan claim", "topic": "Yukos unit buyer faces loan claim"}, "type": "Feature"}, {"geometry": {"coordinates": [121.412278, 14.133179], "type": "Point"}, "properties": {"category": "business", "location": "Yukos", "sentiment": "Negative", "title": "Yukos seeks court action on sale", "topic": "Yukos seeks court action on sale"}, "type": "Feature"}, {"geometry": {"coordinates": [121.412278, 14.133179], "type": "Point"}, "properties": {"category": "business", "location": "Yukos", "sentiment": "Negative", "title": "Yukos unit fetches $9bn at auction", "topic": "Yukos unit fetches $9bn at auction"}, "type": "Feature"}, {"geometry": {"coordinates": [-100.445882, 39.78373], "type": "Point"}, "properties": {"category": "business", "location": "US", "sentiment": "Negative", "title": "Deutsche attacks Yukos case", "topic": "Deutsche attacks Yukos case"}, "type": "Feature"}, {"geometry": {"coordinates": [-100.445882, 39.78373], "type": "Point"}, "properties": {"category": "business", "location": "US", "sentiment": "Negative", "title": "Yukos sues four firms for $20bn", "topic": "Yukos sues four firms for $20bn"}, "type": "Feature"}, {"geometry": {"coordinates": [0.0, 0.0], "type": "Point"}, "properties": {"category": "business", "location": "Yuganskneftegas", "sentiment": "Negative", "title": "Mystery surrounds new Yukos owner", "topic": "Mystery surrounds new Yukos owner"}, "type": "Feature"}, {"geometry": {"coordinates": [97.745306, 64.686314], "type": "Point"}, "properties": {"category": "business", "location": "Russia", "sentiment": "Negative", "title": "Russia gets investment blessing", "topic": "Russia gets investment blessing"}, "type": "Feature"}, {"geometry": {"coordinates": [121.412278, 14.133179], "type": "Point"}, "properties": {"category": "business", "location": "Yukos", "sentiment": "Negative", "title": "Putin backs state grab for Yukos", "topic": "Putin backs state grab for Yukos"}, "type": "Feature"}, {"geometry": {"coordinates": [121.412278, 14.133179], "type": "Point"}, "properties": {"category": "business", "location": "Yukos", "sentiment": "Negative", "title": "Yukos owner sues Russia for $28bn", "topic": "Yukos owner sues Russia for $28bn"}, "type": "Feature"}, {"geometry": {"coordinates": [-100.445882, 39.78373], "type": "Point"}, "properties": {"category": "business", "location": "US", "sentiment": "Negative", "title": "US to rule on Yukos refuge call", "topic": "US to rule on Yukos refuge call"}, "type": "Feature"}, {"geometry": {"coordinates": [-100.445882, 39.78373], "type": "Point"}, "properties": {"category": "business", "location": "US", "sentiment": "Negative", "title": "Yukos accused of lying to court", "topic": "Yukos accused of lying to court"}, "type": "Feature"}, {"geometry": {"coordinates": [-73.783892, 2.889443], "type": "Point"}, "properties": {"category": "politics", "location": "Colombia", "sentiment": "Negative", "title": "Rich grab half Colombia poor fund", "topic": "Rich grab half Colombia poor fund"}, "type": "Feature"}, {"geometry": {"coordinates": [0.083333, 52.333333], "type": "Point"}, "properties": {"category": "politics", "location": "Cambridgeshire", "sentiment": "Negative", "title": "Councils 'must find Gypsy sites'", "topic": "Councils 'must find Gypsy sites'"}, "type": "Feature"}, {"geometry": {"coordinates": [54.564352, 32.647531], "type": "Point"}, "properties": {"category": "politics", "location": "Iran", "sentiment": "Negative", "title": "Blair to face trust issue head on", "topic": "Blair to face trust issue head on"}, "type": "Feature"}, {"geometry": {"coordinates": [-77.696936, 39.252879], "type": "Point"}, "properties": {"category": "politics", "location": "Britain", "sentiment": "Negative", "title": "Talks aim to avert pension strike", "topic": "Talks aim to avert pension strike"}, "type": "Feature"}, {"geometry": {"coordinates": [32.216658, 1.533355], "type": "Point"}, "properties": {"category": "politics", "location": "Uganda", "sentiment": "Negative", "title": "Uganda bans Vagina Monologues", "topic": "Uganda bans Vagina Monologues"}, "type": "Feature"}, {"geometry": {"coordinates": [100.83273, 14.897192], "type": "Point"}, "properties": {"category": "politics", "location": "Thailand", "sentiment": "Negative", "title": "Quake's economic costs emerging", "topic": "Quake's economic costs emerging"}, "type": "Feature"}, {"geometry": {"coordinates": [-100.445882, 39.78373], "type": "Point"}, "properties": {"category": "politics", "location": "US", "sentiment": "Negative", "title": "US to probe airline travel chaos", "topic": "US to probe airline travel chaos"}, "type": "Feature"}, {"geometry": {"coordinates": [-77.696936, 39.252879], "type": "Point"}, "properties": {"category": "politics", "location": "Britain", "sentiment": "Negative", "title": "At a glance: Tory health checks", "topic": "At a glance: Tory health checks"}, "type": "Feature"}, {"geometry": {"coordinates": [-100.445882, 39.78373], "type": "Point"}, "properties": {"category": "politics", "location": "US", "sentiment": "Negative", "title": "US blogger fired by her airline", "topic": "US blogger fired by her airline"}, "type": "Feature"}, {"geometry": {"coordinates": [28.286057, -25.841214], "type": "Point"}, "properties": {"category": "politics", "location": "Asbos", "sentiment": "Negative", "title": "New 'yob' targets to be unveiled", "topic": "New 'yob' targets to be unveiled"}, "type": "Feature"}, {"geometry": {"coordinates": [-6.959155, 54.585984], "type": "Point"}, "properties": {"category": "politics", "location": "Northern Ireland", "sentiment": "Negative", "title": "'Fido' to be taken off vote lists", "topic": "'Fido' to be taken off vote lists"}, "type": "Feature"}, {"geometry": {"coordinates": [-6.959155, 54.585984], "type": "Point"}, "properties": {"category": "politics", "location": "Northern Ireland", "sentiment": "Negative", "title": "Former NI minister Scott dies", "topic": "Former NI minister Scott dies"}, "type": "Feature"}, {"geometry": {"coordinates": [30.064436, -1.964663], "type": "Point"}, "properties": {"category": "politics", "location": "Rwanda", "sentiment": "Negative", "title": "UK helps raped Rwandan women", "topic": "UK helps raped Rwandan women"}, "type": "Feature"}, {"geometry": {"coordinates": [-3.276575, 54.702354], "type": "Point"}, "properties": {"category": "politics", "location": "UK", "sentiment": "Negative", "title": "A question of trust and technology", "topic": "A question of trust and technology"}, "type": "Feature"}, {"geometry": {"coordinates": [117.890285, -2.483383], "type": "Point"}, "properties": {"category": "politics", "location": "Indonesia", "sentiment": "Negative", "title": "Monsanto fined $1.5m for bribery", "topic": "Monsanto fined $1.5m for bribery"}, "type": "Feature"}, {"geometry": {"coordinates": [-3.276575, 54.702354], "type": "Point"}, "properties": {"category": "politics", "location": "UK", "sentiment": "Negative", "title": "E-University 'disgraceful waste'", "topic": "E-University 'disgraceful waste'"}, "type": "Feature"}, {"geometry": {"coordinates": [-53.2, -10.333333], "type": "Point"}, "properties": {"category": "politics", "location": "Brazil", "sentiment": "Negative", "title": "Brazil plays down Varig rescue", "topic": "Brazil plays down Varig rescue"}, "type": "Feature"}, {"geometry": {"coordinates": [11.521334, 3.868987], "type": "Point"}, "properties": {"category": "politics", "location": "Yaounde", "sentiment": "Negative", "title": "Salary scandal in Cameroon", "topic": "Salary scandal in Cameroon"}, "type": "Feature"},