{"features": [{"geometry": {"coordinates": [-1.983889, 43.322422], "type": "Point"}, "properties": {"category": "sports", "location": "San Sebastian", "sentiment": "Neutral", "title": "Sociedad set to rescue Mladenovic", "topic": "Sociedad set to rescue Mladenovic"}, "type": "Feature"}, {"geometry": {"coordinates": [0.0, 0.0], "type": "Point"}, "properties": {"category": "sports", "location": "Velimir Zajec", "sentiment": "Neutral", "title": "Redknapp poised for Saints", "topic": "Redknapp poised for Saints"}, "type": "Feature"}, {"geometry": {"coordinates": [14.520858, 59.674971], "type": "Point"}, "properties": {"category": "sports", "location": "Sweden", "sentiment": "Neutral", "title": "Solskjaer raises hopes of return", "topic": "Solskjaer raises hopes of return"}, "type": "Feature"}, {"geometry": {"coordinates": [-0.206077, 51.474422], "type": "Point"}, "properties": {"category": "sports", "location": "Fulham", "sentiment": "Neutral", "title": "Ferguson rues failure to cut gap", "topic": "Ferguson rues failure to cut gap"}, "type": "Feature"}, {"geometry": {"coordinates": [-100.445882, 39.78373], "type": "Point"}, "properties": {"category": "sports", "location": "US", "sentiment": "Neutral", "title": "Man Utd to open books to Glazer", "topic": "Man Utd to open books to Glazer"}, "type": "Feature"}, {"geometry": {"coordinates": [34.866765, 31.531311], "type": "Point"}, "properties": {"category": "sports", "location": "Israel", "sentiment": "Neutral", "title": "Iranian misses Israel match", "topic": "Iranian misses Israel match"}, "type": "Feature"}, {"geometry": {"coordinates": [14.921501, -16.676343], "type": "Point"}, "properties": {"category": "sports", "location": "Cafu", "sentiment": "Neutral", "title": "Stam spices up Man Utd encounter", "topic": "Stam spices up Man Utd encounter"}, "type": "Feature"}, {"geometry": {"coordinates": [-2.2334, 53.484444], "type": "Point"}, "properties": {"category": "sports", "location": "Manchester City", "sentiment": "Neutral", "title": "Anelka 'eyes Man City departure'", "topic": "Anelka 'eyes Man City departure'"}, "type": "Feature"}, {"geometry": {"coordinates": [-100.000038, 22.500048], "type": "Point"}, "properties": {"category": "sports", "location": "Mexico", "sentiment": "Neutral", "title": "Mexicans tracking unhappy Juninho", "topic": "Mexicans tracking unhappy Juninho"}, "type": "Feature"}, {"geometry": {"coordinates": [-4.838065, 39.326234], "type": "Point"}, "properties": {"category": "sports", "location": "Spain", "sentiment": "Neutral", "title": "Real in talks over Gravesen move", "topic": "Real in talks over Gravesen move"}, "type": "Feature"}, {"geometry": {"coordinates": [0.004568, 51.528097], "type": "Point"}, "properties": {"category": "sports", "location": "West Ham", "sentiment": "Neutral", "title": "FA probes crowd trouble", "topic": "FA probes crowd trouble"}, "type": "Feature"}, {"geometry": {"coordinates": [26.10272, 44.436141], "type": "Point"}, "properties": {"category": "sports", "location": "Bucharest", "sentiment": "Neutral", "title": "Mutu to hold talks with Juventus", "topic": "Mutu to hold talks with Juventus"}, "type": "Feature"}, {"geometry": {"coordinates": [-3.276575, 54.702354], "type": "Point"}, "properties": {"category": "business", "location": "UK", "sentiment": "Neutral", "title": "Further rise in UK jobless total", "topic": "Further rise in UK jobless total"}, "type": "Feature"}, {"geometry": {"coordinates": [139.239418, 36.574844], "type": "Point"}, "properties": {"category": "business", "location": "Japan", "sentiment": "Neutral", "title": "Tokyo says deflation 'controlled'", "topic": "Tokyo says deflation 'controlled'"}, "type": "Feature"}, {"geometry": {"coordinates": [-3.276575, 54.702354], "type": "Point"}, "properties": {"category": "entertainment", "location": "UK", "sentiment": "Neutral", "title": "Film production 'falls' 40% in UK", "topic": "Film production 'falls' 40% in UK"}, "type": "Feature"}, {"geometry": {"coordinates": [-100.445882, 39.78373], "type": "Point"}, "properties": {"category": "entertainment", "location": "US", "sentiment": "Neutral", "title": "US box office set for record high", "topic": "US box office set for record high"}, "type": "Feature"}, {"geometry": {"coordinates": [-118.329523, 34.098003], "type": "Point"}, "properties": {"category": "entertainment", "location": "Hollywood", "sentiment": "Neutral", "title": "UK debut for Kevin Spacey movie", "topic": "UK debut for Kevin Spacey movie"}, "type": "Feature"}, {"geometry": {"coordinates": [-100.445882, 39.78373], "type": "Point"}, "properties": {"category": "entertainment", "location": "US", "sentiment": "Neutral", "title": "DVD review: Spider-Man 2", "topic": "DVD review: Spider-Man 2"}, "type": "Feature"}, {"geometry": {"coordinates": [134.755, -24.776109], "type": "Point"}, "properties": {"category": "entertainment", "location": "Australia", "sentiment": "Neutral", "title": "Actress Roberts takes spider role", "topic": "Actress Roberts takes spider role"}, "type": "Feature"}, {"geometry": {"coordinates": [-0.127647, 51.507322], "type": "Point"}, "properties": {"category": "entertainment", "location": "London", "sentiment": "Neutral", "title": "Poppins musical gets flying start", "topic": "Poppins musical gets flying start"}, "type": "Feature"}, {"geometry": {"coordinates": [-100.445882, 39.78373], "type": "Point"}, "properties": {"category": "entertainment", "location": "US", "sentiment": "Neutral", "title": "Original Exorcist to be screened", "topic": "Original Exorcist to be screened"}, "type": "Feature"}, {"geometry": {"coordinates": [-84.390264, 33.748992], "type": "Point"}, "properties": {"category": "entertainment", "location": "Atlanta", "sentiment": "Neutral", "title": "Spike Lee backs student directors", "topic": "Spike Lee backs student directors"}, "type": "Feature"}, {"geometry": {"coordinates": [-118.242766, 34.053691], "type": "Point"}, "properties": {"category": "entertainment", "location": "Los Angeles", "sentiment": "Neutral", "title": "Michael film signals 'retirement'", "topic": "Michael film signals 'retirement'"}, "type": "Feature"}, {"geometry": {"coordinates": [12.744049, 48.554993], "type": "Point"}, "properties": {"category": "technology", "location": "Gartner", "sentiment": "Neutral", "title": "Text message record smashed again", "topic": "Text message record smashed again"}, "type": "Feature"}, {"geometry": {"coordinates": [0.0, 0.0], "type": "Point"}, "properties": {"category": "technology", "location": "Easygroup", "sentiment": "Neutral", "title": "Orange colour clash set for court", "topic": "Orange colour clash set for court"}, "type": "Feature"}, {"geometry": {"coordinates": [12.744049, 48.554993], "type": "Point"}, "properties": {"category": "technology", "location": "Gartner", "sentiment": "Neutral", "title": "Text message record smashed", "topic": "Text message record smashed"}, "type": "Feature"}, {"geometry": {"coordinates": [134.755, -24.776109], "type": "Point"}, "properties": {"category": "business", "location": "Australia", "sentiment": "Neutral", "title": "Qantas sees profits fly to record", "topic": "Qantas sees profits fly to record"}, "type": "Feature"}, {"geometry": {"coordinates": [-100.445882, 39.78373], "type": "Point"}, "properties": {"category": "business", "location": "US", "sentiment": "Neutral", "title": "Bad weather hits Nestle sales", "topic": "Bad weather hits Nestle sales"}, "type": "Feature"}, {"geometry": {"coordinates": [8.541042, 47.374449], "type": "Point"}, "properties": {"category": "business", "location": "Zurich", "sentiment": "Neutral", "title": "GM in crunch talks on Fiat future", "topic": "GM in crunch talks on Fiat future"}, "type": "Feature"}, {"geometry": {"coordinates": [-100.445882, 39.78373], "type": "Point"}, "properties": {"category": "business", "location": "US", "sentiment": "Neutral", "title": "Delta cuts fares in survival plan", "topic": "Delta cuts fares in survival plan"}, "type": "Feature"}, {"geometry": {"coordinates": [-100.445882, 39.78373], "type": "Point"}, "properties": {"category": "business", "location": "US", "sentiment": "Neutral", "title": "US firm 'bids for Lacroix label'", "topic": "US firm 'bids for Lacroix label'"}, "type": "Feature"}, {"geometry": {"coordinates": [-100.445882, 39.78373], "type": "Point"}, "properties": {"category": "business", "location": "US", "sentiment": "Neutral", "title": "Steel firm 'to cut' 45,000 jobs", "topic": "Steel firm 'to cut' 45,000 jobs"}, "type": "Feature"}, {"geometry": {"coordinates": [-100.445882, 39.78373], "type": "Point"}, "properties": {"category": "business", "location": "US", "sentiment": "Neutral", "title": "Disney settles disclosure charges", "topic": "Disney settles disclosure charges"}, "type": "Feature"}, {"geometry": {"coordinates": [-100.445882, 39.78373], "type": "Point"}, "properties": {"category": "business", "location": "US", "sentiment": "Neutral", "title": "Novartis hits acquisition trail", "topic": "Novartis hits acquisition trail"}, "type": "Feature"}, {"geometry": {"coordinates": [-3.276575, 54.702354], "type": "Point"}, "properties": {"category": "business", "location": "UK", "sentiment": "Neutral", "title": "UK Coal plunges into deeper loss", "topic": "UK Coal plunges into deeper loss"}, "type": "Feature"}, {"geometry": {"coordinates": [-100.445882, 39.78373], "type": "Point"}, "properties": {"category": "business", "location": "US", "sentiment": "Neutral", "title": "Qwest may spark MCI bidding war", "topic": "Qwest may spark MCI bidding war"}, "type": "Feature"}, {"geometry": {"coordinates": [-100.445882, 39.78373], "type": "Point"}, "properties": {"category": "sports", "location": "USA", "sentiment": "Neutral", "title": "Ferrero eyes return to top form", "topic": "Ferrero eyes return to top form"}, "type": "Feature"}, {"geometry": {"coordinates": [11.801169, 51.150394], "type": "Point"}, "properties": {"category": "sports", "location": "Melzer", "sentiment": "Neutral", "title": "Roddick into San Jose final", "topic": "Roddick into San Jose final"}, "type": "Feature"}, {"geometry": {"coordinates": [97.745306, 64.686314], "type": "Point"}, "properties": {"category": "sports", "location": "Russia", "sentiment": "Neutral", "title": "Minister digs in over doping row", "topic": "Minister digs in over doping row"}, "type": "Feature"}, {"geometry": {"coordinates": [-4.838065, 39.326234], "type": "Point"}, "properties": {"category": "sports", "location": "Spain", "sentiment": "Neutral", "title": "Sydney return for Henin-Hardenne", "topic": "Sydney return for Henin-Hardenne"}, "type": "Feature"}, {"geometry": {"coordinates": [151.216454, -33.854816], "type": "Point"}, "properties": {"category": "sports", "location": "Sydney", "sentiment": "Neutral", "title": "Injury sidelines Philippoussis", "topic": "Injury sidelines Philippoussis"}, "type": "Feature"}, {"geometry": {"coordinates": [138.599931, -34.928181], "type": "Point"}, "properties": {"category": "sports", "location": "Adelaide", "sentiment": "Neutral", "title": "Rochus shocks Coria in Auckland", "topic": "Rochus shocks Coria in Auckland"}, "type": "Feature"}, {"geometry": {"coordinates": [-59.52503, 13.150033], "type": "Point"}, "properties": {"category": "entertainment", "location": "Barbados", "sentiment": "Neutral", "title": "Charity single for quake relief", "topic": "Charity single for quake relief"}, "type": "Feature"}, {"geometry": {"coordinates": [-3.276575, 54.702354], "type": "Point"}, "properties": {"category": "entertainment", "location": "UK", "sentiment": "Neutral", "title": "Ten-year tragedy of missing Manic", "topic": "Ten-year tragedy of missing Manic"}, "type": "Feature"}, {"geometry": {"coordinates": [-100.445882, 39.78373], "type": "Point"}, "properties": {"category": "entertainment", "location": "US", "sentiment": "Neutral", "title": "REM concerts blighted by illness", "topic": "REM concerts blighted by illness"}, "type": "Feature"}, {"geometry": {"coordinates": [-122.419906, 37.779026], "type": "Point"}, "properties": {"category": "entertainment", "location": "San Francisco", "sentiment": "Neutral", "title": "Singer Ian Brown 'in gig arrest'", "topic": "Singer Ian Brown 'in gig arrest'"}, "type": "Feature"}, {"geometry": {"coordinates": [-0.127647, 51.507322], "type": "Point"}, "properties": {"category": "entertainment", "location": "London", "sentiment": "Neutral", "title": "Abba reunite for musical premiere", "topic": "Abba reunite for musical premiere"}, "type": "Feature"}, {"geometry": {"coordinates": [25.335886, -24.976611], "type": "Point"}, "properties": {"category": "entertainment", "location": "Kanye West", "sentiment": "Neutral", "title": "Rapper Jay-Z becomes label boss", "topic": "Rapper Jay-Z becomes label boss"}, "type": "Feature"}, {"geometry": {"coordinates": [-71.825867, 52.476089], "type": "Point"}, "properties": {"category": "politics", "location": "QC", "sentiment": "Neutral", "title": "Goldsmith denies war advice claim", "topic": "Goldsmith denies war advice claim"}, "type": "Feature"}, {"geometry": {"coordinates": [-100.445882, 39.78373], "type": "Point"}, "properties": {"category": "politics", "location": "US", "sentiment": "Neutral", "title": "Tutu's Guantanamo release call", "topic": "Tutu's Guantanamo release call"}, "type": "Feature"}, {"geometry": {"coordinates": [172.834408, -41.500083], "type": "Point"}, "properties": {"category": "sports", "location": "New Zealand", "sentiment": "Neutral", "title": "Campbell to be Lions consultant", "topic": "Campbell to be Lions consultant"}, "type": "Feature"}, {"geometry": {"coordinates": [1.888334, 46.603354], "type": "Point"}, "properties": {"category": "sports", "location": "France", "sentiment": "Neutral", "title": "Fit-again Betsen in France squad", "topic": "Fit-again Betsen in France squad"}, "type": "Feature"}, {"geometry": {"coordinates": [-1.264906, 52.531021], "type": "Point"}, "properties": {"category": "sports", "location": "England", "sentiment": "Neutral", "title": "Wilkinson to miss Ireland match", "topic": "Wilkinson to miss Ireland match"}, "type": "Feature"}, {"geometry": {"coordinates": [-4.114052, 56.786111], "type": "Point"}, "properties": {"category": "sports", "location": "Scotland", "sentiment": "Neutral", "title": "Smith aims to bring back respect", "topic": "Smith aims to bring back respect"}, "type": "Feature"}, {"geometry": {"coordinates": [-100.445882, 39.78373], "type": "Point"}, "properties": {"category": "sports", "location": "US", "sentiment": "Neutral", "title": "Gaming firm to sell UK dog tracks", "topic": "Gaming firm to sell UK dog tracks"}, "type": "Feature"}, {"geometry": {"coordinates": [-3.276575, 54.702354], "type": "Point"}, "properties": {"category": "sports", "location": "UK", "sentiment": "Neutral", "title": "Games firms 'face tough future'", "topic": "Games firms 'face tough future'"}, "type": "Feature"}, {"geometry": {"coordinates": [0.0, 0.0], "type": "Point"}, "properties": {"category": "sports", "location": "Tarceva", "sentiment": "Neutral", "title": "AstraZeneca hit by drug failure", "topic": "AstraZeneca hit by drug failure"}, "type": "Feature"}, {"geometry": {"coordinates": [51.229529, 25.333698], "type": "Point"}, "properties": {"category": "sports", "location": "Qatar", "sentiment": "Neutral", "title": "IAAF to rule on Greek sprint pair", "topic": "IAAF to rule on Greek sprint pair"}, "type": "Feature"}, {"geometry": {"coordinates": [21.987713, 38.995368], "type": "Point"}, "properties": {"category": "sports", "location": "Greece", "sentiment": "Neutral", "title": "Kenteris denies faking road crash", "topic": "Kenteris denies faking road crash"}, "type": "Feature"}, {"geometry": {"coordinates": [0.004568, 51.528097], "type": "Point"}, "properties": {"category": "politics", "location": "West Ham", "sentiment": "Neutral", "title": "Labour in constituency race row", "topic": "Labour in constituency race row"}, "type": "Feature"}, {"geometry": {"coordinates": [44.174977, 33.095579], "type": "Point"}, "properties": {"category": "politics", "location": "Iraq", "sentiment": "Neutral", "title": "Kennedy calls for Iraq exit plans", "topic": "Kennedy calls for Iraq exit plans"}, "type": "Feature"}, {"geometry": {"coordinates": [-0.127647, 51.507322], "type": "Point"}, "properties": {"category": "politics", "location": "London", "sentiment": "Neutral", "title": "Labour battle plan 'hides Blair'", "topic": "Labour battle plan 'hides Blair'"}, "type": "Feature"}, {"geometry": {"coordinates": [6.79781, 50.708863], "type": "Point"}, "properties": {"category": "politics", "location": "Lib Dem", "sentiment": "Neutral", "title": "Kennedy begins pre-election tour", "topic": "Kennedy begins pre-election tour"}, "type": "Feature"}, {"geometry": {"coordinates": [-77.696936, 39.252879], "type": "Point"}, "properties": {"category": "politics", "location": "Britain", "sentiment": "Neutral", "title": "Howard rejects BNP's claim", "topic": "Howard rejects BNP's claim"}, "type": "Feature"}, {"geometry": {"coordinates": [-3.276575, 54.702354], "type": "Point"}, "properties": {"category": "business", "location": "UK", "sentiment": "Neutral", "title": "Pre-poll clash on tax and spend", "topic": "Pre-poll clash on tax and spend"}, "type": "Feature"}, {"geometry": {"coordinates": [-100.445882, 39.78373], "type": "Point"}, "properties": {"category": "business", "location": "US", "sentiment": "Neutral", "title": "Fed chief warning on US deficit", "topic": "Fed chief warning on US deficit"}, "type": "Feature"}, {"geometry": {"coordinates": [-4.114052, 56.786111], "type": "Point"}, "properties": {"category": "business", "location": "Scotland", "sentiment": "Neutral", "title": "Councils prepare to set tax rises", "topic": "Councils prepare to set tax rises"}, "type": "Feature"}, {"geometry": {"coordinates": [-3.73893, 52.292812], "type": "Point"}, "properties": {"category": "business", "location": "Wales", "sentiment": "Neutral", "title": "Council tax rise 'reasonable'", "topic": "Council tax rise 'reasonable'"}, "type": "Feature"}, {"geometry": {"coordinates": [-3.276575, 54.702354], "type": "Point"}, "properties": {"category": "business", "location": "UK", "sentiment": "Neutral", "title": "UK 'risks breaking golden rule'", "topic": "UK 'risks breaking golden rule'"}, "type": "Feature"}, {"geometry": {"coordinates": [-0.127647, 51.507322], "type": "Point"}, "properties": {"category": "business", "location": "London", "sentiment": "Neutral", "title": "Crossrail link 'to get go-ahead'", "topic": "Crossrail link 'to get go-ahead'"}, "type": "Feature"}, {"geometry": {"coordinates": [104.999927, 35.000074], "type": "Point"}, "properties": {"category": "business", "location": "China", "sentiment": "Neutral", "title": "China had role in Yukos split-up", "topic": "China had role in Yukos split-up"}, "type": "Feature"}, {"geometry": {"coordinates": [0.0, 0.0], "type": "Point"}, "properties": {"category": "business", "location": "Sun Interbrew", "sentiment": "Neutral", "title": "Beer giant swallows Russian firm", "topic": "Beer giant swallows Russian firm"}, "type": "Feature"}, {"geometry": {"coordinates": [121.412278, 14.133179], "type": "Point"}, "properties": {"category": "business", "location": "Yukos", "sentiment": "Neutral", "title": "Khodorkovsky quits Yukos shares", "topic": "Khodorkovsky quits Yukos shares"}, "type": "Feature"}, {"geometry": {"coordinates": [121.412278, 14.133179], "type": "Point"}, "properties": {"category": "business", "location": "Yukos", "sentiment": "Neutral", "title": "Khodorkovsky ally denies charges", "topic": "Khodorkovsky ally denies charges"}, "type": "Feature"}, {"geometry": {"coordinates": [44.174977, 33.095579], "type": "Point"}, "properties": {"category": "politics", "location": "Iraq", "sentiment": "Neutral", "title": "US firm pulls out of Iraq", "topic": "US firm pulls out of Iraq"}, "type": "Feature"}, {"geometry": {"coordinates": [-3.833333, 55.583333], "type": "Point"}, "properties": {"category": "politics", "location": "South Lanarkshire", "sentiment": "Neutral", "title": "Escaped prisoner report ordered", "topic": "Escaped prisoner report ordered"}, "type": "Feature"}, {"geometry": {"coordinates": [-122.330062, 47.603832], "type": "Point"}, "properties": {"category": "politics", "location": "Seattle", "sentiment": "Neutral", "title": "Row threatens Hendrix museum plan", "topic": "Row threatens Hendrix museum plan"}, "type": "Feature"}, {"geometry": {"coordinates": [42.352833, 25.624262], "type": "Point"}, "properties": {"category": "politics", "location": "Saudi Arabia's", "sentiment": "Neutral", "title": "Saudi ministry to employ women", "topic": "Saudi ministry to employ women"}, "type": "Feature"}, {"geometry": {"coordinates": [-77.696936, 39.252879], "type": "Point"}, "properties": {"category": "politics", "location": "Britain", "sentiment": "Neutral", "title": "'Super union' merger plan touted", "topic": "'Super union' merger plan touted"}, "type": "Feature"}, {"geometry": {"coordinates": [78.667743, 22.351115], "type": "Point"}, "properties": {"category": "politics", "location": "India", "sentiment": "Neutral", "title": "Call centre users 'lose patience'", "topic": "Call centre users 'lose patience'"}, "type": "Feature"}, {"geometry": {"coordinates": [42.352833, 25.624262], "type": "Point"}, "properties": {"category": "politics", "location": "Saudi Arabia", "sentiment": "Neutral", "title": "BA to suspend two Saudi services", "topic": "BA to suspend two Saudi services"}, "type": "Feature"}, {"geometry": {"coordinates": [-4.114052, 56.786111], "type": "Point"}, "properties": {"category": "politics", "location": "Scotland", "sentiment": "Neutral", "title": "MPs assess Scots fishing industry", "topic": "MPs assess Scots fishing industry"}, "type": "Feature"}, {"geometry": {"coordinates": [10.423447, 51.08342], "type": "Point"}, "properties": {"category": "politics", "location": "Germany", "sentiment": "Neutral", "title": "'Hitler' row over Welsh arts cash", "topic": "'Hitler' row over Welsh arts cash"}, "type": "Feature"}, {"geometry": {"coordinates": [97.745306, 64.686314], "type": "Point"}, "properties": {"category": "politics", "location": "Russia", "sentiment": "Neutral", "title": "How political squabbles snowball", "topic": "How political squabbles snowball"}, "type": "Feature"}, {"geometry": {"coordinates": [-4.114052, 56.786111], "type": "Point"}, "properties": {"category": "politics", "location": "Scotland", "sentiment": "Neutral", "title": "Student 'fee factor' played down", "topic": "Student 'fee factor' played down"}, "type": "Feature"}, {"geometry": {"coordinates": [-3.276575, 54.702354], "type": "Point"}, "properties": {"category": "politics", "location": "UK", "sentiment": "Neutral", "title": "New foot and mouth action urged", "topic": "New foot and mouth action urged"}, "type": "Feature"}, {"geometry": {"coordinates": [-107.991707, 61.066692], "type": "Point"}, "properties": {"category": "politics", "location": "Canada", "sentiment": "Neutral", "title": "Cannabis hopes for drug firm", "topic": "Cannabis hopes for drug firm"}, "type": "Feature"}, {"geometry": {"coordinates": [38.431398, 1.441968], "type": "Point"}, "properties": {"category": "sports", "location": "Kenya", "sentiment": "Neutral", "title": "Kenya lift Chepkemei's suspension", "topic": "Kenya lift Chepkemei's suspension"}, "type": "Feature"}, {"geometry": {"coordinates": [-77.696936, 39.252879], "type": "Point"}, "properties": {"category": "sports", "location": "Britain", "sentiment": "Neutral", "title": "Greene sets sights on world title", "topic": "Greene sets sights on world title"}, "type": "Feature"}, {"geometry": {"coordinates": [-74.006015, 40.712728], "type": "Point"}, "properties": {"category": "technology", "location": "New York", "sentiment": "Neutral", "title": "Microsoft debuts security tools", "topic": "Microsoft debuts security tools"}, "type": "Feature"}, {"geometry": {"coordinates": [0.0, 0.0], "type": "Point"}, "properties": {"category": "technology", "location": "Suprnova", "sentiment": "Neutral", "title": "Hollywood campaign hits websites", "topic": "Hollywood campaign hits websites"}, "type": "Feature"}, {"geometry": {"coordinates": [-78.492772, 37.123224], "type": "Point"}, "properties": {"category": "technology", "location": "Virginia", "sentiment": "Neutral", "title": "US duo in first spam conviction", "topic": "US duo in first spam conviction"}, "type": "Feature"}, {"geometry": {"coordinates": [-90.184769, 32.299038], "type": "Point"}, "properties": {"category": "sports", "location": "Jackson", "sentiment": "Neutral", "title": "Leeds v Saracens (Fri)", "topic": "Leeds v Saracens (Fri)"}, "type": "Feature"}, {"geometry": {"coordinates": [9.533324, 55.700006], "type": "Point"}, "properties": {"category": "sports", "location": "Vaili", "sentiment": "Neutral", "title": "Worcester v Sale (Fri)", "topic": "Worcester v Sale (Fri)"}, "type": "Feature"}, {"geometry": {"coordinates": [-7.97946, 52.865196], "type": "Point"}, "properties": {"category": "sports", "location": "Ireland", "sentiment": "Neutral", "title": "Ireland 17-12 South Africa", "topic": "Ireland 17-12 South Africa"}, "type": "Feature"}, {"geometry": {"coordinates": [-82.515447, 40.75839], "type": "Point"}, "properties": {"category": "sports", "location": "Mansfield", "sentiment": "Neutral", "title": "Mansfield 0-1 Leyton Orient", "topic": "Mansfield 0-1 Leyton Orient"}, "type": "Feature"}, {"geometry": {"coordinates": [-100.445882, 39.78373], "type": "Point"}, "properties": {"category": "business", "location": "US", "sentiment": "Neutral", "title": "Europe blames US over weak dollar", "topic": "Europe blames US over weak dollar"}, "type": "Feature"}, {"geometry": {"coordinates": [44.174977, 33.095579], "type": "Point"}, "properties": {"category": "business", "location": "Iraq", "sentiment": "Neutral", "title": "Bush to outline 'toughest' budget", "topic": "Bush to outline 'toughest' budget"}, "type": "Feature"}, {"geometry": {"coordinates": [-3.276575, 54.702354], "type": "Point"}, "properties": {"category": "business", "location": "UK", "sentiment": "Neutral", "title": "Barclays shares up on merger talk", "topic": "Barclays shares up on merger talk"}, "type": "Feature"}, {"geometry": {"coordinates": [104.999927, 35.000074], "type": "Point"}, "properties": {"category": "business", "location": "China", "sentiment": "Neutral", "title": "Profits jump at China's top bank", "topic": "Profits jump at China's top bank"}, "type": "Feature"}, {"geometry": {"coordinates": [-100.445882, 39.78373], "type": "Point"}, "properties": {"category": "business", "location": "US", "sentiment": "Neutral", "title": "Soaring oil 'hits world economy'", "topic": "Soaring oil 'hits world economy'"}, "type": "Feature"}, {"geometry": {"coordinates": [73.768455, 26.810578], "type": "Point"}, "properties": {"category": "business", "location": "Rajasthan", "sentiment": "Neutral", "title": "Cairn shares up on new oil find", "topic": "Cairn shares up on new oil find"}, "type": "Feature"}, {"geometry": {"coordinates": [51.229529, 25.333698], "type": "Point"}, "properties": {"category": "business", "location": "Qatar", "sentiment": "Neutral", "title": "Qatar and Shell in $6bn gas deal", "topic": "Qatar and Shell in $6bn gas deal"}, "type": "Feature"}, {"geometry": {"coordinates": [78.667743, 22.351115], "type": "Point"}, "properties": {"category": "business", "location": "India", "sentiment": "Neutral", "title": "VW considers opening Indian plant", "topic": "VW considers opening Indian plant"}, "type": "Feature"}, {"geometry": {"coordinates": [104.999927, 35.000074], "type": "Point"}, "properties": {"category": "business", "location": "China", "sentiment": "Neutral", "title": "Yangtze Electric's profits double", "topic": "Yangtze Electric's profits double"}, "type": "Feature"}, {"geometry": {"coordinates": [-3.276575, 54.702354], "type": "Point"}, "properties": {"category": "business", "location": "UK", "sentiment": "Neutral", "title": "'EU referendum could cost \u00a380m'", "topic": "'EU referendum could cost \u00a380m'"}, "type": "Feature"}, {"geometry": {"coordinates": [104.999927, 35.000074], "type": "Point"}, "properties": {"category": "business", "location": "China", "sentiment": "Neutral", "title": "Aids and climate top Davos agenda", "topic": "Aids and climate top Davos agenda"}, "type": "Feature"}, {"geometry": {"coordinates": [-100.445882, 39.78373], "type": "Point"}, "properties": {"category": "business", "location": "US", "sentiment": "Neutral", "title": "EU-US seeking deal on air dispute", "topic": "EU-US seeking deal on air dispute"}, "type": "Feature"}, {"geometry": {"coordinates": [-3.276575, 54.702354], "type": "Point"}, "properties": {"category": "business", "location": "UK", "sentiment": "Neutral", "title": "UK rebate 'unjustified' - Chirac", "topic": "UK rebate 'unjustified' - Chirac"}, "type": "Feature"}, {"geometry": {"coordinates": [-0.127647, 51.507322], "type": "Point"}, "properties": {"category": "politics", "location": "London", "sentiment": "Neutral", "title": "Mayor will not retract Nazi jibe", "topic": "Mayor will not retract Nazi jibe"}, "type": "Feature"}, {"geometry": {"coordinates": [-0.274163, 51.658726], "type": "Point"}, "properties": {"category": "entertainment", "location": "Holby City", "sentiment": "Neutral", "title": "McCririck out of Big Brother show", "topic": "McCririck out of Big Brother show"}, "type": "Feature"}, {"geometry": {"coordinates": [-100.445882, 39.78373], "type": "Point"}, "properties": {"category": "entertainment", "location": "US", "sentiment": "Neutral", "title": "Tarantino to direct CSI episode", "topic": "Tarantino to direct CSI episode"}, "type": "Feature"}, {"geometry": {"coordinates": [-100.445882, 39.78373], "type": "Point"}, "properties": {"category": "entertainment", "location": "US", "sentiment": "Neutral", "title": "Alicia Keys to open US Super Bowl", "topic": "Alicia Keys to open US Super Bowl"}, "type": "Feature"}, {"geometry": {"coordinates": [-100.445882, 39.78373], "type": "Point"}, "properties": {"category": "entertainment", "location": "US", "sentiment": "Neutral", "title": "Man auctions ad space on forehead", "topic": "Man auctions ad space on forehead"}, "type": "Feature"}, {"geometry": {"coordinates": [-100.445882, 39.78373], "type": "Point"}, "properties": {"category": "entertainment", "location": "US", "sentiment": "Neutral", "title": "Housewives lift Channel 4 ratings", "topic": "Housewives lift Channel 4 ratings"}, "type": "Feature"}, {"geometry": {"coordinates": [-100.445882, 39.78373], "type": "Point"}, "properties": {"category": "entertainment", "location": "US", "sentiment": "Neutral", "title": "US 'to raise TV indecency fines'", "topic": "US 'to raise TV indecency fines'"}, "type": "Feature"}, {"geometry": {"coordinates": [-100.445882, 39.78373], "type": "Point"}, "properties": {"category": "entertainment", "location": "US", "sentiment": "Neutral", "title": "Top stars join US tsunami TV show", "topic": "Top stars join US tsunami TV show"}, "type": "Feature"}, {"geometry": {"coordinates": [104.999927, 35.000074], "type": "Point"}, "properties": {"category": "politics", "location": "China", "sentiment": "Neutral", "title": "Police detain Chinese milk bosses", "topic": "Police detain Chinese milk bosses"}, "type": "Feature"}, {"geometry": {"coordinates": [-1.264906, 52.531021], "type": "Point"}, "properties": {"category": "politics", "location": "England", "sentiment": "Neutral", "title": "Blunkett unveils policing plans", "topic": "Blunkett unveils policing plans"}, "type": "Feature"}], "type": "FeatureCollection"}